~Version
 VERS              .         2.0                           : CWLS LOG ASCII STANDARD - VERSION 2.0
 WRAP              .         NO                            : ONE LINE PER DEPTH STEP
 DLM               .         SPACE                         : DELIMITING CHARACTER(SPACE TAB OR COMMA)
~Well Information
#_______________________________________________________________________________
#
#PARAMETER_NAME    .UNIT     VALUE                         : DESCRIPTION
#_______________________________________________________________________________
STRT               .M        953                           : First reference value
STOP               .M        3080.3516                     : Last reference value
STEP               .M        0.1524                        : Step increment
NULL               .         -9999                         : Missing value
COMP               .         PETROLEO BRASILEIRO S/A       : Company
WELL               .         WELL1                         : Well name
FLD                .                                       : Field
LOC                .                                       : Location
PROV               .                                       : Province
SRVC               .         SCH                           : Service Company
DATE               .         04/09/2021                    : Date
UWI                .         7.43E+11                      : Unique Well ID
API                .         742810147700                  : API Code
COORDIN            .                                       : Grid System
COUNT              .         BRASIL                        : Country
CRS_Data           .         <?xml version="1.0" encoding="utf-8"?><!--INFO_ This file accompanies a data file and contains the spatial context.--><!--INFO_ It was made by serializing an Ocean spatial companion information record.--><!--INFO_ The coordinate reference system (CRS) is verbosely defined as ESRI well-known-text (WKT).--><SpatialCompanion version="1.0"><ILateBoundCoordinateReferenceSystem name="SIRGAS_2000_UTM_Zone_24S" crsType="Projected" engine="ESRI" engineVersion="PE_10_7_1"><AuthorityCode>EPSG,31984</AuthorityCode><WKT>PROJCS["SIRGAS_2000_UTM_Zone_24S",GEOGCS["GCS_SIRGAS_2000",DATUM["D_SIRGAS_2000",SPHEROID["GRS_1980",6378137.0,298.257222101]],PRIMEM["Greenwich",0.0],UNIT["Degree",0.0174532925199433]],PROJECTION["Transverse_Mercator"],PARAMETER["False_Easting",500000.0],PARAMETER["False_Northing",10000000.0],PARAMETER["Central_Meridian",-39.0],PARAMETER["Scale_Factor",0.9996],PARAMETER["Latitude_Of_Origin",0.0],UNIT["Meter",1.0],AUTHORITY["EPSG",31984]]</WKT></ILateBoundCoordinateReferenceSystem><Info history="" /></SpatialCompanion>: 
EDF                .M        13.00                         : Elevation Derrick Floor
EREF               .         13                            : 
DREF               .         MR                            : 
GDAT               .         SIRGAS2000                    : Geodetic Datum
HZCS               .         SIRGAS_2000_UTM_Zone_24S      : ESRI,PE_10_7_1- <?xml version="1.0" encoding="utf-16"?><ILateBoundCoordinateReferenceSystem name="SIRGAS_2000_UTM_Zone_24S"><AuthorityCode>EPSG,31984</AuthorityCode></ILateBoundCoordinateReferenceSystem>
Horizontal_coordinate_system_authority .         EPSG                          : 
Horizontal_coordinate_system_code .         31984                         : 
LAT                .         -22.087448                    : Latitude
LMF                .         MR                            : Log Measure From
LATI               .dega     -22.08757333                  : Latitude
LONG               .dega     -39.87572194                  : Longitude
MC                 .         39 W                          : Meridiano Central
MDEC               .         0                             : Magnetic Declination
ORIG               .         SIGEO EXPORTACAO PERFIL       : Origem dos dados
ORIGINALWELLNAME   .         1RJS 0342  RJ                 : 
OPER               .         Petrobras                     : 
RWS                .         0                             : Def_Rw
STATE              .         RIO DE JANEIRO                : State
STAT               .         RIO DE JANEIRO                : State
Total_Depth        .         3087                          : 
TD                 .         3087                          : 
UTMZ               .         24                            : UTM Zone
WDMS               .M        953.00                        : Water Depth to Mean Sea Level
WST                .         0                             : Def_Rwt
Water_depth        .M        953                           : 
X                  .         409660.31000000               : 
XCOORD             .         409658.99                     : Surface X
Y                  .         7557220.24000000              : 
YCOORD             .         7557234.00                    : Surface Y
group              .         AB140                         : 
~Parameter Information Block
#_______________________________________________________________________________
#
#PARAMETER_NAME    .UNIT     VALUE                         : DESCRIPTION
#_______________________________________________________________________________
SET                .         BEST_SET                      : 
TLFamily_CALI      .         Caliper                       : 
TLFamily_DENS      .         Bulk Density                  : 
TLFamily_DT        .         Compressional Slowness        : 
TLFamily_Eletrofacies_TGS .         Lithology                     : 
TLFamily_GR        .         Gamma Ray                     : 
TLFamily_HDRA      .         Bulk Density Correction       : 
TLFamily_MD        .         Measured Depth                : 
TLFamily_NEUT      .         Neutron Porosity              : 
TLFamily_PAY_NET_FLAG .         Net Pay Flag                  : 
TLFamily_PERM_WR_MC_MEAN .         Permeability                  : 
TLFamily_PHIE_F    .         Effective Porosity            : 
TLFamily_PHIT_F    .         Total Porosity                : 
TLFamily_RES_D     .         Resistivity - Deep            : 
TLFamily_RES_NET_FLAG .         Net Reservoir Flag            : 
TLFamily_RES_S     .         Resistivity - Spherically Focused: 
TLFamily_RHOV      .         Acoustic Impedance            : 
TLFamily_ROCK_NET_FLAG .         Net Rock Flag                 : 
TLFamily_SWE_SIM   .         Effective Water Saturation    : 
TLFamily_VP        .         Compressional Velocity        : 
TLFamily_VSH_FINAL .         Shale Volume Fraction         : 
~Curve Information
#_______________________________________________________________________________
#
#LOGNAME           .UNIT     LOG_ID                        : DESCRIPTION
#_______________________________________________________________________________
DEPTH              .M                                      : Measured Depth 
CALI               .in                                     : CALIPER 
DENS               .g/cm3                                  : BULK DENSITY 
DT                 .us/ft                                  : DELTA-T (ALSO CALLED SLOWNESS OR INTERVAL TRANSIT TIME) 
Eletrofacies_TGS   .unitless                               : Description 
GR                 .gAPI                                   : GAMMA RAY 
HDRA               .g/cm3                                  : BULK DENSITIY CORRECTION 
NEUT               .frac                                   : THERMAL NEUTRON POROSITY (ORIGINAL RATIO METHOD) IN SELECTED LITHOLOGY 
PAY_NET_FLAG       .unitless                               : unitless 
PERM_WR_MC_MEAN    .mD                                     : Permeability (Wyllie-Rose) 
PHIE_F             .m3/m3                                  :  
PHIT_F             .m3/m3                                  :  
RES_D              .ohm.m                                  : INDUCTION DEEP RESISTIVITY 
RES_NET_FLAG       .unitless                               : unitless 
RES_S              .ohm.m                                  : SFL RESISTIVITY UNAVERAGED 
RHOV               .g.m/cm3.s                              : Impedance from Geophy 
ROCK_NET_FLAG      .unitless                               : unitless 
SWE_SIM            .m3/m3                                  :  
VP                 .m/s                                    : Compressional velocity 
VSH_FINAL          .m3/m3                                  : Final computation of Shale volume fraction 
~Ascii
# ...
2954.4692  8.2913     2.3024     92.0027    -9999      95.0047    0.0189     0.32455    0          -9999      -9999      -9999      1.6122     0          -9999      7627.728   0          -9999      3312.946   -9999     
2954.6216  8.3127     2.3137     96.868     -9999      98.7584    0.0174     0.333186   0          -9999      -9999      -9999      1.502      0          -9999      7280.173   0          -9999      3146.55    -9999     
2954.774   8.3369     2.3414     98.3648    -9999      102.5327   0.0222     0.355957   0          -9999      -9999      -9999      1.3988     0          -9999      7255.225   0          -9999      3098.669   -9999     
2954.9264  8.3743     2.3602     98.7749    -9999      105.7953   0.0232     0.370812   0          -9999      -9999      -9999      1.345      0          -9999      7283.114   0          -9999      3085.804   -9999     
2955.0788  8.4057     2.3752     99.0148    -9999      106.6119   0.0243     0.381201   0          -9999      -9999      -9999      1.3086     0          -9999      7311.644   0          -9999      3078.328   -9999     
2955.2312  8.4257     2.3887     99.3882    -9999      104.7971   0.0294     0.38894    0          -9999      -9999      -9999      1.2779     0          -9999      7325.576   0          -9999      3066.762   -9999     
2955.3836  8.4337     2.4033     100.0728   -9999      101.3145   0.0482     0.396681   0          -9999      -9999      -9999      1.2443     0          -9999      7319.93    0          -9999      3045.782   -9999     
2955.536   8.4465     2.4047     100.5087   -9999      101.2924   0.0547     0.385158   0          -9999      -9999      -9999      1.2316     0          -9999      7292.43    0          -9999      3032.573   -9999     
2955.6884  8.4567     2.3967     100.118    -9999      102.6898   0.0453     0.358631   0          -9999      -9999      -9999      1.2037     0          -9999      7296.532   0          -9999      3044.408   -9999     
2955.8408  8.4531     2.3861     98.9806    -9999      103.8086   0.0283     0.329088   0          -9999      -9999      -9999      1.1693     0          -9999      7347.735   0          -9999      3079.392   -9999     
2955.9932  8.4182     2.3838     97.3881    -9999      102.1417   0.0193     0.316914   0          -9999      -9999      -9999      1.1529     0          -9999      7460.688   0          -9999      3129.746   -9999     
2956.1456  8.361      2.3875     95.4328    -9999      98.6149    0.02       0.331174   0          -9999      -9999      -9999      1.1534     0          -9999      7625.366   0          -9999      3193.871   -9999     
2956.298   8.3488     2.389      94.4487    -9999      96.0701    0.0167     0.332761   0          -9999      -9999      -9999      1.1836     0          -9999      7709.658   0          -9999      3227.149   -9999     
2956.4504  8.3573     2.3921     93.8916    -9999      93.9655    0.0103     0.313771   0          -9999      -9999      -9999      1.2591     0          -9999      7765.467   0          -9999      3246.297   -9999     
2956.6028  8.3553     2.4019     93.028     -9999      91.4644    0.0029     0.268724   0          -9999      -9999      -9999      1.3954     0          -9999      7869.665   0          -9999      3276.433   -9999     
2956.7552  8.3425     2.4331     89.5364    -9999      85.1303    0.0006     0.224909   0          -9999      -9999      -9999      1.6086     0          -9999      8282.764   0          -9999      3404.202   -9999     
2956.9076  8.3597     2.473      84.1801    -9999      80.7866    -0.0016    0.188497   0          -9999      -9999      -9999      1.8979     0          -9999      8954.259   0          -9999      3620.808   -9999     
2957.06    8.3825     2.5151     77.2175    -9999      79.7354    -0.0037    0.152013   0          -9999      -9999      -9999      2.2496     0          -9999      9927.834   0          -9999      3947.292   -9999     
2957.2124  8.3907     2.5541     69.1861    -9999      82.2788    -0.005     0.110907   0          -9999      -9999      -9999      2.6373     0          -9999      11252.11   0          -9999      4405.509   -9999     
2957.3648  8.3572     2.5803     63.5931    -9999      82.1478    0.003      0.074385   0          -9999      -9999      -9999      2.8931     0          -9999      12367.31   0          -9999      4792.973   -9999     
2957.5172  8.3393     2.584568   62.3513    -9999      79.0203    0.0287     0.06819    0          -9999      -9999      -9999      2.9602     0          -9999      12634.48   0          -9999      4888.431   -9999     
2957.6696  8.3186     2.5598     65.3729    -9999      76.3681    0.0566     0.09474301 0          -9999      -9999      -9999      2.8517     0          -9999      11935.02   0          -9999      4662.482   -9999     
2957.822   8.2905     2.4975     72.2532    -9999      75.5652    0.0743     0.14932    0          -9999      -9999      -9999      2.5887     0          -9999      10535.7    0          -9999      4218.499   -9999     
2957.9744  8.2728     2.4018     81.1115    -9999      75.8331    0.0523     0.202184   0          -9999      -9999      -9999      2.2494     0          -9999      9025.459   0          -9999      3757.79    -9999     
2958.1268  8.2326     2.3358     87.1266    -9999      75.099     0.0287     0.228562   0          -9999      -9999      -9999      1.9298     0          -9999      8171.463   0          -9999      3498.357   -9999     
2958.2792  8.185      2.3014     90.5638    -9999      74.4909    0.0176     0.240239   0          -9999      -9999      -9999      1.6081     0          -9999      7745.553   0          -9999      3365.583   -9999     
2958.4316  8.1435     2.2916     92.0075    -9999      74.1679    0.0196     0.242638   0          -9999      -9999      -9999      1.2986     0          -9999      7591.552   0          -9999      3312.773   -9999     
2958.584   8.1358     2.2854     92.9421    -9999      73.7449    0.026      0.242549   0          -9999      -9999      -9999      1.0586     0          -9999      7494.88    0          -9999      3279.461   -9999     
2958.7364  8.1546     2.2748     93.7626    -9999      72.175     0.0334     0.241871   0          -9999      -9999      -9999      0.8749     0          -9999      7394.835   0          -9999      3250.763   -9999     
2958.8888  8.1673     2.2647     95.0369    -9999      72.1939    0.0401     0.246075   0          -9999      -9999      -9999      0.7325     0          -9999      7263.29    0          -9999      3207.175   -9999     
2959.0412  8.1709     2.2526     96.702     -9999      74.3223    0.0429     0.257118   0          -9999      -9999      -9999      0.6233     0          -9999      7100.085   0          -9999      3151.951   -9999     
2959.1936  8.1674     2.2331     98.5088    -9999      78.7991    0.0364     0.277061   0          -9999      -9999      -9999      0.5366     0          -9999      6909.523   0          -9999      3094.14    -9999     
2959.346   8.172      2.2087     99.5479    -9999      81.988     0.0198     0.292629   0          -9999      -9999      -9999      0.4675     0          -9999      6762.691   0          -9999      3061.843   -9999     
2959.4984  8.1647     2.1961     100.3272   -9999      84.3816    0.0075     0.299197   0          -9999      -9999      -9999      0.4127     0          -9999      6671.882   0          -9999      3038.06    -9999     
2959.6508  8.1539     2.1957     100.8187   -9999      86.2897    0.0023     0.300422   0          -9999      -9999      -9999      0.3731     0          -9999      6638.147   0          -9999      3023.249   -9999     
2959.8032  8.15       2.2066     100.9685   -9999      87.9732    0.0058     0.300817   0          -9999      -9999      -9999      0.3491     0          -9999      6661.203   0          -9999      3018.763   -9999     
2959.9556  8.1524     2.2076     100.525    -9999      85.9657    0.0115     0.305073   0          -9999      -9999      -9999      0.3482     0          -9999      6693.624   0          -9999      3032.082   -9999     
