~Version
 VERS              .         2.0                           : CWLS LOG ASCII STANDARD - VERSION 2.0
 WRAP              .         NO                            : ONE LINE PER DEPTH STEP
 DLM               .         SPACE                         : DELIMITING CHARACTER(SPACE TAB OR COMMA)
~Well Information
#_______________________________________________________________________________
#
#PARAMETER_NAME    .UNIT     VALUE                         : DESCRIPTION
#_______________________________________________________________________________
STRT               .M        953                           : First reference value
STOP               .M        3080.3516                     : Last reference value
STEP               .M        0.1524                        : Step increment
NULL               .         -9999                         : Missing value
COMP               .         PETROLEO BRASILEIRO S/A       : Company
WELL               .         WELL1                         : Well name
FLD                .                                       : Field
LOC                .                                       : Location
PROV               .                                       : Province
SRVC               .         SCH                           : Service Company
DATE               .         04/09/2021                    : Date
UWI                .         7.43E+11                      : Unique Well ID
API                .         742810147700                  : API Code
COORDIN            .                                       : Grid System
COUNT              .         BRASIL                        : Country
CRS_Data           .         <?xml version="1.0" encoding="utf-8"?><!--INFO_ This file accompanies a data file and contains the spatial context.--><!--INFO_ It was made by serializing an Ocean spatial companion information record.--><!--INFO_ The coordinate reference system (CRS) is verbosely defined as ESRI well-known-text (WKT).--><SpatialCompanion version="1.0"><ILateBoundCoordinateReferenceSystem name="SIRGAS_2000_UTM_Zone_24S" crsType="Projected" engine="ESRI" engineVersion="PE_10_7_1"><AuthorityCode>EPSG,31984</AuthorityCode><WKT>PROJCS["SIRGAS_2000_UTM_Zone_24S",GEOGCS["GCS_SIRGAS_2000",DATUM["D_SIRGAS_2000",SPHEROID["GRS_1980",6378137.0,298.257222101]],PRIMEM["Greenwich",0.0],UNIT["Degree",0.0174532925199433]],PROJECTION["Transverse_Mercator"],PARAMETER["False_Easting",500000.0],PARAMETER["False_Northing",10000000.0],PARAMETER["Central_Meridian",-39.0],PARAMETER["Scale_Factor",0.9996],PARAMETER["Latitude_Of_Origin",0.0],UNIT["Meter",1.0],AUTHORITY["EPSG",31984]]</WKT></ILateBoundCoordinateReferenceSystem><Info history="" /></SpatialCompanion>: 
EDF                .M        13.00                         : Elevation Derrick Floor
EREF               .         13                            : 
DREF               .         MR                            : 
GDAT               .         SIRGAS2000                    : Geodetic Datum
HZCS               .         SIRGAS_2000_UTM_Zone_24S      : ESRI,PE_10_7_1- <?xml version="1.0" encoding="utf-16"?><ILateBoundCoordinateReferenceSystem name="SIRGAS_2000_UTM_Zone_24S"><AuthorityCode>EPSG,31984</AuthorityCode></ILateBoundCoordinateReferenceSystem>
Horizontal_coordinate_system_authority .         EPSG                          : 
Horizontal_coordinate_system_code .         31984                         : 
LAT                .         -22.087448                    : Latitude
LMF                .         MR                            : Log Measure From
LATI               .dega     -22.08757333                  : Latitude
LONG               .dega     -39.87572194                  : Longitude
MC                 .         39 W                          : Meridiano Central
MDEC               .         0                             : Magnetic Declination
ORIG               .         SIGEO EXPORTACAO PERFIL       : Origem dos dados
ORIGINALWELLNAME   .         1RJS 0342  RJ                 : 
OPER               .         Petrobras                     : 
RWS                .         0                             : Def_Rw
STATE              .         RIO DE JANEIRO                : State
STAT               .         RIO DE JANEIRO                : State
Total_Depth        .         3087                          : 
TD                 .         3087                          : 
UTMZ               .         24                            : UTM Zone
WDMS               .M        953.00                        : Water Depth to Mean Sea Level
WST                .         0                             : Def_Rwt
Water_depth        .M        953                           : 
X                  .         409660.31000000               : 
XCOORD             .         409658.99                     : Surface X
Y                  .         7557220.24000000              : 
YCOORD             .         7557234.00                    : Surface Y
group              .         AB140                         : 
~Parameter Information Block
#_______________________________________________________________________________
#
#PARAMETER_NAME    .UNIT     VALUE                         : DESCRIPTION
#_______________________________________________________________________________
SET                .         BEST_SET                      : 
TLFamily_CALI      .         Caliper                       : 
TLFamily_DENS      .         Bulk Density                  : 
TLFamily_DT        .         Compressional Slowness        : 
TLFamily_Eletrofacies_TGS .         Lithology                     : 
TLFamily_GR        .         Gamma Ray                     : 
TLFamily_HDRA      .         Bulk Density Correction       : 
TLFamily_MD        .         Measured Depth                : 
TLFamily_NEUT      .         Neutron Porosity              : 
TLFamily_PAY_NET_FLAG .         Net Pay Flag                  : 
TLFamily_PERM_WR_MC_MEAN .         Permeability                  : 
TLFamily_PHIE_F    .         Effective Porosity            : 
TLFamily_PHIT_F    .         Total Porosity                : 
TLFamily_RES_D     .         Resistivity - Deep            : 
TLFamily_RES_NET_FLAG .         Net Reservoir Flag            : 
TLFamily_RES_S     .         Resistivity - Spherically Focused: 
TLFamily_RHOV      .         Acoustic Impedance            : 
TLFamily_ROCK_NET_FLAG .         Net Rock Flag                 : 
TLFamily_SWE_SIM   .         Effective Water Saturation    : 
TLFamily_VP        .         Compressional Velocity        : 
TLFamily_VSH_FINAL .         Shale Volume Fraction         : 
~Curve Information
#_______________________________________________________________________________
#
#LOGNAME           .UNIT     LOG_ID                        : DESCRIPTION
#_______________________________________________________________________________
DEPTH              .M                                      : Measured Depth 
CALI               .in                                     : CALIPER 
DENS               .g/cm3                                  : BULK DENSITY 
DT                 .us/ft                                  : DELTA-T (ALSO CALLED SLOWNESS OR INTERVAL TRANSIT TIME) 
Eletrofacies_TGS   .unitless                               : Description 
GR                 .gAPI                                   : GAMMA RAY 
HDRA               .g/cm3                                  : BULK DENSITIY CORRECTION 
NEUT               .frac                                   : THERMAL NEUTRON POROSITY (ORIGINAL RATIO METHOD) IN SELECTED LITHOLOGY 
PAY_NET_FLAG       .unitless                               : unitless 
PERM_WR_MC_MEAN    .mD                                     : Permeability (Wyllie-Rose) 
PHIE_F             .m3/m3                                  :  
PHIT_F             .m3/m3                                  :  
RES_D              .ohm.m                                  : INDUCTION DEEP RESISTIVITY 
RES_NET_FLAG       .unitless                               : unitless 
RES_S              .ohm.m                                  : SFL RESISTIVITY UNAVERAGED 
RHOV               .g.m/cm3.s                              : Impedance from Geophy 
ROCK_NET_FLAG      .unitless                               : unitless 
SWE_SIM            .m3/m3                                  :  
VP                 .m/s                                    : Compressional velocity 
VSH_FINAL          .m3/m3                                  : Final computation of Shale volume fraction 
~Ascii
# ...
3016.496   8.0829     2.241      92.2623    -9999      83.1584    0.0138     0.275288   0          -9999      -9999      -9999      0.3684     0          -9999      7403.422   0          -9999      3303.625   -9999     
3016.6484  8.076      2.2406     92.8756    -9999      80.4818    0.0131     0.279211   0          -9999      -9999      -9999      0.3739     0          -9999      7353.222   0          -9999      3281.809   -9999     
3016.8008  8.0623     2.2388     93.4103    -9999      75.9375    0.0141     0.275566   0          -9999      -9999      -9999      0.3789     0          -9999      7305.257   0          -9999      3263.023   -9999     
3016.9532  8.058      2.2388     93.4734    -9999      74.2795    0.0193     0.264255   0          -9999      -9999      -9999      0.3779     0          -9999      7300.326   0          -9999      3260.821   -9999     
3017.1056  8.0566     2.2399     93.3344    -9999      74.5482    0.0227     0.254689   0          -9999      -9999      -9999      0.369      0          -9999      7314.79    0          -9999      3265.677   -9999     
3017.258   8.0566     2.2413     93.079     -9999      75.8823    0.0245     0.247561   0          -9999      -9999      -9999      0.3574     0          -9999      7339.445   0          -9999      3274.638   -9999     
3017.4104  8.0566     2.2422     92.7891    -9999      77.4947    0.0244     0.243657   0          -9999      -9999      -9999      0.3477     0          -9999      7365.332   0          -9999      3284.868   -9999     
3017.5628  8.0566     2.2404     92.6107    -9999      78.3698    0.024      0.246863   0          -9999      -9999      -9999      0.3459     0          -9999      7373.597   0          -9999      3291.196   -9999     
3017.7152  8.0585     2.2368     92.5847    -9999      80.1146    0.0209     0.255853   0          -9999      -9999      -9999      0.348      0          -9999      7363.815   0          -9999      3292.12    -9999     
3017.8676  8.0681     2.235      92.5468    -9999      82.6562    0.0166     0.26445    0          -9999      -9999      -9999      0.3508     0          -9999      7360.903   0          -9999      3293.469   -9999     
3018.02    8.0867     2.237      92.4156    -9999      85.7168    0.0132     0.269082   0          -9999      -9999      -9999      0.3522     0          -9999      7377.949   0          -9999      3298.144   -9999     
3018.1724  8.1057     2.245      92.1844    -9999      87.8926    0.0173     0.266592   0          -9999      -9999      -9999      0.3491     0          -9999      7422.904   0          -9999      3306.416   -9999     
3018.3248  8.102      2.2505     92.4641    -9999      87.3433    0.0223     0.262589   0          -9999      -9999      -9999      0.3462     0          -9999      7418.58    0          -9999      3296.414   -9999     
3018.4772  8.0939     2.253      93.0739    -9999      85.1959    0.0277     0.259575   0          -9999      -9999      -9999      0.3451     0          -9999      7378.164   0          -9999      3274.817   -9999     
3018.6296  8.0928     2.2533     93.8408    -9999      82.4031    0.0327     0.258266   0          -9999      -9999      -9999      0.347      0          -9999      7318.84    0          -9999      3248.054   -9999     
3018.782   8.1187     2.2544     94.3766    -9999      80.9779    0.0355     0.258608   0          -9999      -9999      -9999      0.3537     0          -9999      7280.842   0          -9999      3229.614   -9999     
3018.9344  8.1344     2.2574     94.5137    -9999      80.9671    0.0331     0.257776   0          -9999      -9999      -9999      0.3621     0          -9999      7279.955   0          -9999      3224.929   -9999     
3019.0868  8.1424     2.2614     94.248     -9999      80.9035    0.0313     0.253856   0          -9999      -9999      -9999      0.3695     0          -9999      7313.415   0          -9999      3234.021   -9999     
3019.2392  8.1428     2.264      93.6237    -9999      80.9949    0.0306     0.247994   0          -9999      -9999      -9999      0.3768     0          -9999      7370.646   0          -9999      3255.586   -9999     
3019.3916  8.1357     2.2611     92.7277    -9999      82.0963    0.0301     0.243014   0          -9999      -9999      -9999      0.3866     0          -9999      7432.335   0          -9999      3287.044   -9999     
3019.544   8.1058     2.2575     92.0225    -9999      84.8575    0.0256     0.243237   0          -9999      -9999      -9999      0.3983     0          -9999      7477.367   0          -9999      3312.233   -9999     
3019.6964  8.0983     2.2582     91.4882    -9999      86.6433    0.0234     0.245068   0          -9999      -9999      -9999      0.4084     0          -9999      7523.368   0          -9999      3331.577   -9999     
3019.8488  8.1076     2.26       91.1233    -9999      86.7704    0.0219     0.248759   0          -9999      -9999      -9999      0.4147     0          -9999      7559.516   0          -9999      3344.918   -9999     
3020.0012  8.1229     2.2585     90.9235    -9999      84.6917    0.018      0.254809   0          -9999      -9999      -9999      0.4145     0          -9999      7571.099   0          -9999      3352.269   -9999     
3020.1536  8.134      2.2523     91.2091    -9999      82.4087    0.0126     0.255791   0          -9999      -9999      -9999      0.4076     0          -9999      7526.673   0          -9999      3341.772   -9999     
3020.306   8.1335     2.2485     91.7154    -9999      81.321     0.0114     0.252819   0          -9999      -9999      -9999      0.4043     0          -9999      7472.495   0          -9999      3323.324   -9999     
3020.4584  8.1278     2.2476     91.86      -9999      81.6109    0.0123     0.24934    0          -9999      -9999      -9999      0.4083     0          -9999      7457.745   0          -9999      3318.093   -9999     
3020.6108  8.1229     2.2499     91.1975    -9999      83.2232    0.0136     0.248214   0          -9999      -9999      -9999      0.4231     0          -9999      7519.609   0          -9999      3342.197   -9999     
3020.7632  8.1311     2.2542     89.736     -9999      84.0358    0.0127     0.25128    0          -9999      -9999      -9999      0.4557     0          -9999      7656.684   0          -9999      3396.63    -9999     
3020.9156  8.1447     2.259      89.2889    -9999      84.0882    0.0138     0.24911    0          -9999      -9999      -9999      0.5142     0          -9999      7711.409   0          -9999      3413.638   -9999     
3021.068   8.159      2.264      89.253     -9999      85.6127    0.0191     0.241907   0          -9999      -9999      -9999      0.6038     0          -9999      7731.585   0          -9999      3415.011   -9999     
3021.2204  8.1703     2.269      88.539     -9999      89.3376    0.0284     0.230852   0          -9999      -9999      -9999      0.7181     0          -9999      7811.147   0          -9999      3442.551   -9999     
3021.3728  8.1709     2.2745     82.6335    -9999      93.3471    0.034      0.222101   0          -9999      -9999      -9999      0.8083     0          -9999      8389.667   0          -9999      3688.577   -9999     
3021.5252  8.1731     2.2852     74.3888    -9999      92.3904    0.0292     0.21369    0          -9999      -9999      -9999      0.8057     0          -9999      9363.358   0          -9999      4097.391   -9999     
3021.6776  8.1809     2.3018     68.7936    -9999      87.6858    0.0208     0.202767   0          -9999      -9999      -9999      0.7743     0          -9999      10198.46   0          -9999      4430.645   -9999     
3021.83    8.1952     2.3217     67.6291    -9999      80.9667    0.0138     0.191736   0          -9999      -9999      -9999      0.7334     0          -9999      10463.75   0          -9999      4506.936   -9999     
3021.9824  8.216      2.3362     72.0403    -9999      76.606     0.0174     0.190813   0          -9999      -9999      -9999      0.6856     0          -9999      9884.381   0          -9999      4230.965   -9999     
