~Version
 VERS              .         2.0                           : CWLS LOG ASCII STANDARD - VERSION 2.0
 WRAP              .         NO                            : ONE LINE PER DEPTH STEP
 DLM               .         SPACE                         : DELIMITING CHARACTER(SPACE TAB OR COMMA)
~Well Information
#_______________________________________________________________________________
#
#PARAMETER_NAME    .UNIT     VALUE                         : DESCRIPTION
#_______________________________________________________________________________
STRT               .M        953                           : First reference value
STOP               .M        3080.3516                     : Last reference value
STEP               .M        0.1524                        : Step increment
NULL               .         -9999                         : Missing value
COMP               .         PETROLEO BRASILEIRO S/A       : Company
WELL               .         WELL1                         : Well name
FLD                .                                       : Field
LOC                .                                       : Location
PROV               .                                       : Province
SRVC               .         SCH                           : Service Company
DATE               .         04/09/2021                    : Date
UWI                .         7.43E+11                      : Unique Well ID
API                .         742810147700                  : API Code
COORDIN            .                                       : Grid System
COUNT              .         BRASIL                        : Country
CRS_Data           .         <?xml version="1.0" encoding="utf-8"?><!--INFO_ This file accompanies a data file and contains the spatial context.--><!--INFO_ It was made by serializing an Ocean spatial companion information record.--><!--INFO_ The coordinate reference system (CRS) is verbosely defined as ESRI well-known-text (WKT).--><SpatialCompanion version="1.0"><ILateBoundCoordinateReferenceSystem name="SIRGAS_2000_UTM_Zone_24S" crsType="Projected" engine="ESRI" engineVersion="PE_10_7_1"><AuthorityCode>EPSG,31984</AuthorityCode><WKT>PROJCS["SIRGAS_2000_UTM_Zone_24S",GEOGCS["GCS_SIRGAS_2000",DATUM["D_SIRGAS_2000",SPHEROID["GRS_1980",6378137.0,298.257222101]],PRIMEM["Greenwich",0.0],UNIT["Degree",0.0174532925199433]],PROJECTION["Transverse_Mercator"],PARAMETER["False_Easting",500000.0],PARAMETER["False_Northing",10000000.0],PARAMETER["Central_Meridian",-39.0],PARAMETER["Scale_Factor",0.9996],PARAMETER["Latitude_Of_Origin",0.0],UNIT["Meter",1.0],AUTHORITY["EPSG",31984]]</WKT></ILateBoundCoordinateReferenceSystem><Info history="" /></SpatialCompanion>: 
EDF                .M        13.00                         : Elevation Derrick Floor
EREF               .         13                            : 
DREF               .         MR                            : 
GDAT               .         SIRGAS2000                    : Geodetic Datum
HZCS               .         SIRGAS_2000_UTM_Zone_24S      : ESRI,PE_10_7_1- <?xml version="1.0" encoding="utf-16"?><ILateBoundCoordinateReferenceSystem name="SIRGAS_2000_UTM_Zone_24S"><AuthorityCode>EPSG,31984</AuthorityCode></ILateBoundCoordinateReferenceSystem>
Horizontal_coordinate_system_authority .         EPSG                          : 
Horizontal_coordinate_system_code .         31984                         : 
LAT                .         -22.087448                    : Latitude
LMF                .         MR                            : Log Measure From
LATI               .dega     -22.08757333                  : Latitude
LONG               .dega     -39.87572194                  : Longitude
MC                 .         39 W                          : Meridiano Central
MDEC               .         0                             : Magnetic Declination
ORIG               .         SIGEO EXPORTACAO PERFIL       : Origem dos dados
ORIGINALWELLNAME   .         1RJS 0342  RJ                 : 
OPER               .         Petrobras                     : 
RWS                .         0                             : Def_Rw
STATE              .         RIO DE JANEIRO                : State
STAT               .         RIO DE JANEIRO                : State
Total_Depth        .         3087                          : 
TD                 .         3087                          : 
UTMZ               .         24                            : UTM Zone
WDMS               .M        953.00                        : Water Depth to Mean Sea Level
WST                .         0                             : Def_Rwt
Water_depth        .M        953                           : 
X                  .         409660.31000000               : 
XCOORD             .         409658.99                     : Surface X
Y                  .         7557220.24000000              : 
YCOORD             .         7557234.00                    : Surface Y
group              .         AB140                         : 
~Parameter Information Block
#_______________________________________________________________________________
#
#PARAMETER_NAME    .UNIT     VALUE                         : DESCRIPTION
#_______________________________________________________________________________
SET                .         BEST_SET                      : 
TLFamily_CALI      .         Caliper                       : 
TLFamily_DENS      .         Bulk Density                  : 
TLFamily_DT        .         Compressional Slowness        : 
TLFamily_Eletrofacies_TGS .         Lithology                     : 
TLFamily_GR        .         Gamma Ray                     : 
TLFamily_HDRA      .         Bulk Density Correction       : 
TLFamily_MD        .         Measured Depth                : 
TLFamily_NEUT      .         Neutron Porosity              : 
TLFamily_PAY_NET_FLAG .         Net Pay Flag                  : 
TLFamily_PERM_WR_MC_MEAN .         Permeability                  : 
TLFamily_PHIE_F    .         Effective Porosity            : 
TLFamily_PHIT_F    .         Total Porosity                : 
TLFamily_RES_D     .         Resistivity - Deep            : 
TLFamily_RES_NET_FLAG .         Net Reservoir Flag            : 
TLFamily_RES_S     .         Resistivity - Spherically Focused: 
TLFamily_RHOV      .         Acoustic Impedance            : 
TLFamily_ROCK_NET_FLAG .         Net Rock Flag                 : 
TLFamily_SWE_SIM   .         Effective Water Saturation    : 
TLFamily_VP        .         Compressional Velocity        : 
TLFamily_VSH_FINAL .         Shale Volume Fraction         : 
~Curve Information
#_______________________________________________________________________________
#
#LOGNAME           .UNIT     LOG_ID                        : DESCRIPTION
#_______________________________________________________________________________
DEPTH              .M                                      : Measured Depth 
CALI               .in                                     : CALIPER 
DENS               .g/cm3                                  : BULK DENSITY 
DT                 .us/ft                                  : DELTA-T (ALSO CALLED SLOWNESS OR INTERVAL TRANSIT TIME) 
Eletrofacies_TGS   .unitless                               : Description 
GR                 .gAPI                                   : GAMMA RAY 
HDRA               .g/cm3                                  : BULK DENSITIY CORRECTION 
NEUT               .frac                                   : THERMAL NEUTRON POROSITY (ORIGINAL RATIO METHOD) IN SELECTED LITHOLOGY 
PAY_NET_FLAG       .unitless                               : unitless 
PERM_WR_MC_MEAN    .mD                                     : Permeability (Wyllie-Rose) 
PHIE_F             .m3/m3                                  :  
PHIT_F             .m3/m3                                  :  
RES_D              .ohm.m                                  : INDUCTION DEEP RESISTIVITY 
RES_NET_FLAG       .unitless                               : unitless 
RES_S              .ohm.m                                  : SFL RESISTIVITY UNAVERAGED 
RHOV               .g.m/cm3.s                              : Impedance from Geophy 
ROCK_NET_FLAG      .unitless                               : unitless 
SWE_SIM            .m3/m3                                  :  
VP                 .m/s                                    : Compressional velocity 
VSH_FINAL          .m3/m3                                  : Final computation of Shale volume fraction 
~Ascii
# ...
2379.3116  12.6935    2.1804     118.0773   1          94.0152    0.0281     0.348155   0          0.0001856009 0.0360232  0.2576101  2.0003     0          2.9207     5628.397   0          0.7969963  2581.36    0.8007347 
2379.464   12.6191    2.168      118.4566   2          90.871     0.0303     0.33566    0          0.1965154  0.07972239 0.2654088  2.1904     0          3.0567     5578.469   0          0.625214   2573.094   0.6710033 
2379.6164  12.5829    2.1596     118.9259   2          86.9663    0.028      0.323403   0          2.019316   0.115908   0.2706918  2.381      0          3.3209     5534.926   0          0.5159855  2562.94    0.5593324 
2379.7688  12.5537    2.1587     118.3727   2          81.8704    0.0262     0.29212    1          8.887655   0.1718035  0.2712578  2.4985     1          3.9609     5558.475   1          0.4231665  2574.918   0.3593917 
2379.9212  12.5963    2.1622     117.187    3          77.4043    0.0273     0.26178    1          6.692474   0.2167104  0.2654432  2.549      1          4.648      5623.819   1          0.3740526  2600.971   0.1835905 
2380.0736  12.6607    2.1631     116.6273   3          75.5181    0.0307     0.25142    1          7.523808   0.2282756  0.2600953  2.5553     1          4.8817     5653.161   1          0.3655461  2613.453   0.1223386 
2380.226   12.7259    2.1542     117.9374   3          76.796     0.0351     0.263861   1          7.974031   0.2250358  0.2690231  2.5297     1          4.5514     5567.362   1          0.3668222  2584.422   0.1635073 
2380.3784  12.7779    2.1172     124.2715   3          80.7965    0.0373     0.283387   1          5.500723   0.2519065  0.2904568  2.4882     1          3.9263     5192.844   1          0.340897   2452.694   0.132723  
2380.5308  13.0017    2.0762     131.5018   3          82.9841    0.0369     0.29968    1          10.19167   0.2913479  0.3116332  2.4669     1          3.5721     4812.297   1          0.3093302  2317.839   0.06509369
2380.6832  13.101     2.0482     135.3664   3          83.952     0.0341     0.323864   1          14.19215   0.2989079  0.3324167  2.4668     1          3.2728     4611.864   1          0.3000596  2251.667   0.1008034 
2380.8356  13.0182    2.0417     134.6781   3          84.3163    0.029      0.347799   1          15.60287   0.2687457  0.3463241  2.4959     1          3.0263     4620.722   1          0.3147116  2263.174   0.2240052 
2380.988   12.7585    2.0682     128.6773   3          85.2301    0.0217     0.347234   1          11.95696   0.2262762  0.3378394  2.5733     1          2.9295     4898.979   1          0.3427613  2368.716   0.3302256 
2381.1404  12.587     2.0905     123.103    3          85.2664    0.0197     0.301044   1          5.580492   0.2667843  0.3076672  2.5943     1          3.4822     5176.027   1          0.3182872  2475.976   0.1328803 
2381.2928  12.5049    2.0896     120.3655   3          84.036     0.0209     0.251233   1          5.6317     0.2847497  0.2847497  2.5637     1          4.3847     5291.467   1          0.3146541  2532.287   0         
2381.4452  12.4844    2.0844     120.2621   3          82.3037    0.0228     0.218698   1          7.634288   0.2728963  0.2728963  2.5224     1          5.1842     5282.837   1          0.3288938  2534.464   0         
2381.5976  12.4844    2.1041     122.1178   3          81.2233    0.0217     0.227032   1          10.49674   0.2691963  0.2691963  2.5282     1          5.2795     5251.729   1          0.3323504  2495.951   0         
2381.75    12.4844    2.1644     122.5964   3          82.0035    0.0132     0.272289   1          7.855949   0.2001663  0.2699908  2.5339     1          4.402      5381.146   1          0.3890711  2486.207   0.2586179 
2381.9024  12.4844    2.2168     122.0909   2          83.062     0.0044     0.317092   0          0.000216314 0.02532369 0.234717   2.5096     0          3.4802     5534.242   0          0.723153   2496.501   0.7566714 
2382.0548  12.4849    2.2492     121.1605   1          84.572     -0.0025    0.348074   0          -9999      0          0.2143395  2.4333     0          2.7575     5658.249   0          1          2515.671   1         
2382.2072  12.4872    2.253      120.3008   1          86.6691    -0.0055    0.353857   0          -9999      0          0.2119496  2.2866     0          2.4362     5708.312   0          1          2533.649   1         
2382.3596  12.5088    2.2548     119.0685   1          88.5444    -0.0079    0.331622   0          -9999      0          0.2108175  2.0656     0          2.5239     5771.998   0          1          2559.871   1         
2382.512   12.5494    2.2523     117.6924   1          89.2295    -0.0044    0.312133   0          -9999      0          0.2123899  1.9003     0          2.683      5833.011   0          1          2589.802   0.8726092 
2382.6644  12.5821    2.2458     116.8733   2          89.2674    0.0031     0.301206   0          0.0000000  0.00141767 0.2164779  1.7965     0          2.823      5856.94    0          1          2607.952   0.7771499 
2382.8168  12.5979    2.235      117.1834   2          89.0502    0.0121     0.30297    0          0.0000288  0.01752765 0.2232705  1.7573     0          2.8888     5813.349   0          1          2601.051   0.74348   
2382.9692  12.6431    2.2164     119.8742   2          89.1445    0.0114     0.32336    0          0.0000083  0.01515452 0.2349686  1.7828     0          2.8569     5635.564   0          1          2542.666   0.7943283 
2383.1216  12.7389    2.1854     123.3057   2          88.6173    0.0102     0.343086   0          0.002063732 0.0359455  0.2544654  1.868      0          2.752      5402.102   0          0.8547804  2471.905   0.7896516 
2383.274   12.7331    2.1585     125.4541   2          87.4313    0.0094     0.348031   0          0.1656274  0.075114   0.2713836  1.9902     0          2.6241     5244.235   0          0.6720704  2429.574   0.7092474 
2383.4264  12.6093    2.1433     125.1566   2          85.6596    0.0095     0.333842   0          3.221983   0.1267239  0.2809433  2.1296     0          2.5511     5219.683   0          0.5252301  2435.349   0.5572932 
2383.5788  12.5087    2.1472     120.6412   2          83.6385    0.0116     0.302737   1          7.42463    0.1737896  0.2784905  2.238      1          2.7663     5424.901   1          0.4436264  2526.5     0.3783509 
2383.7312  12.4986    2.1648     115.6686   3          81.8294    0.0201     0.280877   1          8.781452   0.1804897  0.2674214  2.2793     1          3.2387     5704.496   1          0.4373485  2635.115   0.3141395 
2383.8836  12.5071    2.1809     112.904    2          80.8431    0.0245     0.269659   1          6.385172   0.1713806  0.2572955  2.3092     1          3.5392     5887.643   1          0.451975   2699.639   0.3104653 
2384.036   12.5335    2.1902     113.1326   2          80.9642    0.0227     0.273543   1          2.31394    0.1481303  0.2514465  2.3418     1          3.5078     5900.801   1          0.4857931  2694.184   0.373347  
2384.1884  12.609     2.1876     116.9485   2          82.5686    0.0141     0.302118   0          0.8884137  0.1031485  0.2530818  2.3834     0          2.972      5701.487   0          0.5577615  2606.275   0.5418047 
2384.3408  12.9071    2.1837     120.4986   1          83.1723    0.0082     0.350869   0          0.0000184  0.02545418 0.2555345  2.4158     0          2.5075     5523.647   0          0.6908634  2529.49    0.8314269 
2384.4932  13.0713    2.1782     122.2367   1          82.0108    0.005      0.384376   0          -9999      0          0.2589937  2.4093     0          2.1998     5431.391   0          1          2493.523   1         
2384.6456  13.0686    2.1717     122.1101   1          79.5216    0.0044     0.396287   0          -9999      0          0.2630817  2.3263     0          2.0493     5420.798   0          1          2496.108   1         
2384.798   12.903     2.1656     120.287    1          76.4438    0.0056     0.382833   0          0.0000000  0.002104548 0.2669182  2.1198     0          2.0416     5487.5     0          1          2533.94    0.9569404 
