~Version
 VERS              .         2.0                           : CWLS LOG ASCII STANDARD - VERSION 2.0
 WRAP              .         NO                            : ONE LINE PER DEPTH STEP
 DLM               .         SPACE                         : DELIMITING CHARACTER(SPACE TAB OR COMMA)
~Well Information
#_______________________________________________________________________________
#
#PARAMETER_NAME    .UNIT     VALUE                         : DESCRIPTION
#_______________________________________________________________________________
STRT               .M        953                           : First reference value
STOP               .M        3080.3516                     : Last reference value
STEP               .M        0.1524                        : Step increment
NULL               .         -9999                         : Missing value
COMP               .         PETROLEO BRASILEIRO S/A       : Company
WELL               .         WELL1                         : Well name
FLD                .                                       : Field
LOC                .                                       : Location
PROV               .                                       : Province
SRVC               .         SCH                           : Service Company
DATE               .         04/09/2021                    : Date
UWI                .         7.43E+11                      : Unique Well ID
API                .         742810147700                  : API Code
COORDIN            .                                       : Grid System
COUNT              .         BRASIL                        : Country
CRS_Data           .         <?xml version="1.0" encoding="utf-8"?><!--INFO_ This file accompanies a data file and contains the spatial context.--><!--INFO_ It was made by serializing an Ocean spatial companion information record.--><!--INFO_ The coordinate reference system (CRS) is verbosely defined as ESRI well-known-text (WKT).--><SpatialCompanion version="1.0"><ILateBoundCoordinateReferenceSystem name="SIRGAS_2000_UTM_Zone_24S" crsType="Projected" engine="ESRI" engineVersion="PE_10_7_1"><AuthorityCode>EPSG,31984</AuthorityCode><WKT>PROJCS["SIRGAS_2000_UTM_Zone_24S",GEOGCS["GCS_SIRGAS_2000",DATUM["D_SIRGAS_2000",SPHEROID["GRS_1980",6378137.0,298.257222101]],PRIMEM["Greenwich",0.0],UNIT["Degree",0.0174532925199433]],PROJECTION["Transverse_Mercator"],PARAMETER["False_Easting",500000.0],PARAMETER["False_Northing",10000000.0],PARAMETER["Central_Meridian",-39.0],PARAMETER["Scale_Factor",0.9996],PARAMETER["Latitude_Of_Origin",0.0],UNIT["Meter",1.0],AUTHORITY["EPSG",31984]]</WKT></ILateBoundCoordinateReferenceSystem><Info history="" /></SpatialCompanion>: 
EDF                .M        13.00                         : Elevation Derrick Floor
EREF               .         13                            : 
DREF               .         MR                            : 
GDAT               .         SIRGAS2000                    : Geodetic Datum
HZCS               .         SIRGAS_2000_UTM_Zone_24S      : ESRI,PE_10_7_1- <?xml version="1.0" encoding="utf-16"?><ILateBoundCoordinateReferenceSystem name="SIRGAS_2000_UTM_Zone_24S"><AuthorityCode>EPSG,31984</AuthorityCode></ILateBoundCoordinateReferenceSystem>
Horizontal_coordinate_system_authority .         EPSG                          : 
Horizontal_coordinate_system_code .         31984                         : 
LAT                .         -22.087448                    : Latitude
LMF                .         MR                            : Log Measure From
LATI               .dega     -22.08757333                  : Latitude
LONG               .dega     -39.87572194                  : Longitude
MC                 .         39 W                          : Meridiano Central
MDEC               .         0                             : Magnetic Declination
ORIG               .         SIGEO EXPORTACAO PERFIL       : Origem dos dados
ORIGINALWELLNAME   .         1RJS 0342  RJ                 : 
OPER               .         Petrobras                     : 
RWS                .         0                             : Def_Rw
STATE              .         RIO DE JANEIRO                : State
STAT               .         RIO DE JANEIRO                : State
Total_Depth        .         3087                          : 
TD                 .         3087                          : 
UTMZ               .         24                            : UTM Zone
WDMS               .M        953.00                        : Water Depth to Mean Sea Level
WST                .         0                             : Def_Rwt
Water_depth        .M        953                           : 
X                  .         409660.31000000               : 
XCOORD             .         409658.99                     : Surface X
Y                  .         7557220.24000000              : 
YCOORD             .         7557234.00                    : Surface Y
group              .         AB140                         : 
~Parameter Information Block
#_______________________________________________________________________________
#
#PARAMETER_NAME    .UNIT     VALUE                         : DESCRIPTION
#_______________________________________________________________________________
SET                .         BEST_SET                      : 
TLFamily_CALI      .         Caliper                       : 
TLFamily_DENS      .         Bulk Density                  : 
TLFamily_DT        .         Compressional Slowness        : 
TLFamily_Eletrofacies_TGS .         Lithology                     : 
TLFamily_GR        .         Gamma Ray                     : 
TLFamily_HDRA      .         Bulk Density Correction       : 
TLFamily_MD        .         Measured Depth                : 
TLFamily_NEUT      .         Neutron Porosity              : 
TLFamily_PAY_NET_FLAG .         Net Pay Flag                  : 
TLFamily_PERM_WR_MC_MEAN .         Permeability                  : 
TLFamily_PHIE_F    .         Effective Porosity            : 
TLFamily_PHIT_F    .         Total Porosity                : 
TLFamily_RES_D     .         Resistivity - Deep            : 
TLFamily_RES_NET_FLAG .         Net Reservoir Flag            : 
TLFamily_RES_S     .         Resistivity - Spherically Focused: 
TLFamily_RHOV      .         Acoustic Impedance            : 
TLFamily_ROCK_NET_FLAG .         Net Rock Flag                 : 
TLFamily_SWE_SIM   .         Effective Water Saturation    : 
TLFamily_VP        .         Compressional Velocity        : 
TLFamily_VSH_FINAL .         Shale Volume Fraction         : 
~Curve Information
#_______________________________________________________________________________
#
#LOGNAME           .UNIT     LOG_ID                        : DESCRIPTION
#_______________________________________________________________________________
DEPTH              .M                                      : Measured Depth 
CALI               .in                                     : CALIPER 
DENS               .g/cm3                                  : BULK DENSITY 
DT                 .us/ft                                  : DELTA-T (ALSO CALLED SLOWNESS OR INTERVAL TRANSIT TIME) 
Eletrofacies_TGS   .unitless                               : Description 
GR                 .gAPI                                   : GAMMA RAY 
HDRA               .g/cm3                                  : BULK DENSITIY CORRECTION 
NEUT               .frac                                   : THERMAL NEUTRON POROSITY (ORIGINAL RATIO METHOD) IN SELECTED LITHOLOGY 
PAY_NET_FLAG       .unitless                               : unitless 
PERM_WR_MC_MEAN    .mD                                     : Permeability (Wyllie-Rose) 
PHIE_F             .m3/m3                                  :  
PHIT_F             .m3/m3                                  :  
RES_D              .ohm.m                                  : INDUCTION DEEP RESISTIVITY 
RES_NET_FLAG       .unitless                               : unitless 
RES_S              .ohm.m                                  : SFL RESISTIVITY UNAVERAGED 
RHOV               .g.m/cm3.s                              : Impedance from Geophy 
ROCK_NET_FLAG      .unitless                               : unitless 
SWE_SIM            .m3/m3                                  :  
VP                 .m/s                                    : Compressional velocity 
VSH_FINAL          .m3/m3                                  : Final computation of Shale volume fraction 
~Ascii
# ...
2898.0812  9.2436     2.3897     108.0452   -9999      87.9693    0.0356     0.389486   0          -9999      0          0.1314375  0.8286     0          -9999      6741.443   0          1          2821.042   1         
2898.2336  9.1589     2.4138     106.2269   -9999      85.7815    0.0488     0.356577   0          -9999      0          0.1163749  0.8801     0          -9999      6925.988   0          1          2869.33    1         
2898.386   9.1576     2.4284     103.0509   -9999      83.8081    0.0574     0.326395   0          -9999      0          0.1072499  0.9258     0          -9999      7182.628   0          1          2957.761   1         
2898.5384  9.0975     2.4315     100.3034   -9999      83.2412    0.0573     0.316971   0          -9999      0          0.1053125  0.9723     0          -9999      7388.794   0          1          3038.781   1         
2898.6908  9.0422     2.4339     98.6437    -9999      83.7974    0.0587     0.316135   0          -9999      0          0.1038124  1.0156     0          -9999      7520.529   0          1          3089.908   1         
2898.8432  8.9954     2.4398     98.2237    -9999      85.1783    0.0655     0.318348   0          -9999      0          0.1001249  1.0562     0          -9999      7570.994   0          1          3103.121   1         
2898.9956  8.9511     2.4537     99.1465    -9999      86.9553    0.082      0.317073   0          -9999      0          0.09143741 1.0957     0          -9999      7543.26    0          1          3074.239   1         
2899.148   8.9086     2.4626     99.6068    -9999      87.7911    0.0935     0.308477   0          -9999      0          0.08587495 1.1261     0          -9999      7535.635   0          1          3060.032   1         
2899.3004  8.8756     2.4602     99.4817    -9999      87.7939    0.0854     0.301119   0          -9999      0          0.0873749  1.1554     0          -9999      7537.758   0          1          3063.88    1         
2899.4528  8.8584     2.452      98.7644    -9999      87.3262    0.0671     0.293357   0          -9999      0          0.09250001 1.176      0          -9999      7567.196   0          1          3086.132   1         
2899.6052  8.8625     2.4445     97.5091    -9999      86.745     0.0494     0.283413   0          -9999      0          0.09718747 1.1796     0          -9999      7641.17    0          1          3125.862   1         
2899.7576  8.8845     2.4562     96.9257    -9999      85.5841    0.0636     0.276217   0          -9999      0          0.08987502 1.1419     0          -9999      7723.955   0          1          3144.677   1         
2899.91    8.8801     2.472      97.2689    -9999      84.0895    0.0973     0.287097   0          -9999      0          0.08000002 1.0922     0          -9999      7746.213   0          1          3133.581   1         
2900.0624  8.8602     2.479      98.4184    -9999      82.8391    0.1283     0.317408   0          -9999      0          0.07562489 1.0441     0          -9999      7677.418   0          1          3096.982   1         
2900.2148  8.8376     2.4689     100.2556   -9999      82.2303    0.1413     0.363802   0          -9999      0          0.08193747 1.0057     0          -9999      7506.021   0          1          3040.229   1         
2900.3672  8.8601     2.4423     102.4701   -9999      82.5287    0.1255     0.391067   0          -9999      0          0.0985624  0.9706     0          -9999      7264.685   0          1          2974.526   1         
2900.5196  8.9131     2.4236     104.289    -9999      83.3525    0.1155     0.386497   0          -9999      0          0.11025    0.9395     0          -9999      7083.329   0          1          2922.648   1         
2900.672   8.9431     2.4101     105.6845   -9999      84.2965    0.1109     0.375567   0          -9999      0          0.1186875  0.8879     0          -9999      6950.863   0          1          2884.056   1         
2900.8244  8.9249     2.3985     106.7595   -9999      84.9491    0.1084     0.37173    0          -9999      0          0.1259375  0.8169     0          -9999      6847.754   0          1          2855.015   1         
2900.9768  8.8401     2.3803     108.0126   -9999      84.1985    0.093      0.390512   0          -9999      0          0.1373124  0.7721     0          -9999      6716.952   0          1          2821.893   1         
2901.1292  8.8546     2.3682     110.0781   -9999      82.7466    0.0838     0.396202   0          -9999      0          0.1448749  0.7469     0          -9999      6557.411   0          1          2768.943   1         
2901.2816  8.907      2.3685     111.6316   -9999      81.6062    0.0866     0.394204   0          -9999      0          0.1446875  0.7323     0          -9999      6466.976   0          1          2730.41    1         
2901.434   8.9583     2.3805     112.31     -9999      81.0222    0.1005     0.391736   0          -9999      0          0.1371874  0.7222     0          -9999      6460.479   0          1          2713.917   1         
2901.5864  8.9444     2.3988     111.9439   -9999      81.0412    0.1203     0.404088   0          -9999      0          0.12575    0.7065     0          -9999      6531.434   0          1          2722.792   1         
2901.7388  8.9668     2.4024     111.6343   -9999      81.8537    0.131      0.417467   0          -9999      0          0.1234999  0.6686     0          -9999      6559.377   0          1          2730.344   1         
2901.8912  8.9947     2.3942     111.7261   -9999      82.9576    0.1298     0.423319   0          -9999      0          0.1286249  0.6477     0          -9999      6531.618   0          1          2728.1     1         
2902.0436  9.0259     2.3812     112.3612   -9999      83.1822    0.1167     0.422384   0          -9999      0          0.1367499  0.6454     0          -9999      6459.434   0          1          2712.68    1         
2902.196   9.0622     2.374      113.6917   -9999      80.8188    0.0932     0.417414   0          -9999      0          0.1412499  0.6571     0          -9999      6364.538   0          1          2680.934   1         
2902.3484  9.0733     2.3839     114.1813   -9999      77.0972    0.0746     0.398869   0          -9999      0          0.1350625  0.677      0          -9999      6363.675   0          1          2669.439   1         
2902.5008  9.0555     2.401      113.4695   -9999      73.8641    0.0688     0.375659   0          -9999      0          0.1243749  0.6933     0          -9999      6449.529   0          1          2686.184   1         
2902.6532  9.0065     2.4213     111.7893   -9999      71.6566    0.0792     0.356545   0          -9999      0          0.1116875  0.7021     0          -9999      6601.814   0          1          2726.558   1         
2902.8056  8.9292     2.4402     109.4677   -9999      70.9682    0.107      0.350313   0          -9999      0          0.09987489 0.7006     0          -9999      6794.452   0          1          2784.383   1         
2902.958   8.9214     2.4443     108.1669   -9999      73.1441    0.1292     0.371507   0          -9999      0          0.09731249 0.7053     0          -9999      6887.713   0          1          2817.867   1         
2903.1104  8.9591     2.437      108.2385   -9999      76.0931    0.1342     0.399137   0          -9999      0          0.1018749  0.7169     0          -9999      6862.601   0          1          2816.004   1         
2903.2628  9.0001     2.4233     109.316    -9999      78.2358    0.128      0.422316   0          -9999      0          0.1104374  0.7247     0          -9999      6756.759   0          1          2788.247   1         
2903.4152  9.0182     2.4069     111.0511   -9999      78.6665    0.116      0.433126   0          -9999      0          0.1206875  0.7212     0          -9999      6606.176   0          1          2744.682   1         
2903.5676  9.0143     2.3936     112.5067   -9999      78.0059    0.1087     0.422172   0          -9999      0          0.129      0.6985     0          -9999      6484.674   0          1          2709.172   1         
