~Version
 VERS              .         2.0                           : CWLS LOG ASCII STANDARD - VERSION 2.0
 WRAP              .         NO                            : ONE LINE PER DEPTH STEP
 DLM               .         SPACE                         : DELIMITING CHARACTER(SPACE TAB OR COMMA)
~Well Information
#_______________________________________________________________________________
#
#PARAMETER_NAME    .UNIT     VALUE                         : DESCRIPTION
#_______________________________________________________________________________
STRT               .M        953                           : First reference value
STOP               .M        3080.3516                     : Last reference value
STEP               .M        0.1524                        : Step increment
NULL               .         -9999                         : Missing value
COMP               .         PETROLEO BRASILEIRO S/A       : Company
WELL               .         WELL1                         : Well name
FLD                .                                       : Field
LOC                .                                       : Location
PROV               .                                       : Province
SRVC               .         SCH                           : Service Company
DATE               .         04/09/2021                    : Date
UWI                .         7.43E+11                      : Unique Well ID
API                .         742810147700                  : API Code
COORDIN            .                                       : Grid System
COUNT              .         BRASIL                        : Country
CRS_Data           .         <?xml version="1.0" encoding="utf-8"?><!--INFO_ This file accompanies a data file and contains the spatial context.--><!--INFO_ It was made by serializing an Ocean spatial companion information record.--><!--INFO_ The coordinate reference system (CRS) is verbosely defined as ESRI well-known-text (WKT).--><SpatialCompanion version="1.0"><ILateBoundCoordinateReferenceSystem name="SIRGAS_2000_UTM_Zone_24S" crsType="Projected" engine="ESRI" engineVersion="PE_10_7_1"><AuthorityCode>EPSG,31984</AuthorityCode><WKT>PROJCS["SIRGAS_2000_UTM_Zone_24S",GEOGCS["GCS_SIRGAS_2000",DATUM["D_SIRGAS_2000",SPHEROID["GRS_1980",6378137.0,298.257222101]],PRIMEM["Greenwich",0.0],UNIT["Degree",0.0174532925199433]],PROJECTION["Transverse_Mercator"],PARAMETER["False_Easting",500000.0],PARAMETER["False_Northing",10000000.0],PARAMETER["Central_Meridian",-39.0],PARAMETER["Scale_Factor",0.9996],PARAMETER["Latitude_Of_Origin",0.0],UNIT["Meter",1.0],AUTHORITY["EPSG",31984]]</WKT></ILateBoundCoordinateReferenceSystem><Info history="" /></SpatialCompanion>: 
EDF                .M        13.00                         : Elevation Derrick Floor
EREF               .         13                            : 
DREF               .         MR                            : 
GDAT               .         SIRGAS2000                    : Geodetic Datum
HZCS               .         SIRGAS_2000_UTM_Zone_24S      : ESRI,PE_10_7_1- <?xml version="1.0" encoding="utf-16"?><ILateBoundCoordinateReferenceSystem name="SIRGAS_2000_UTM_Zone_24S"><AuthorityCode>EPSG,31984</AuthorityCode></ILateBoundCoordinateReferenceSystem>
Horizontal_coordinate_system_authority .         EPSG                          : 
Horizontal_coordinate_system_code .         31984                         : 
LAT                .         -22.087448                    : Latitude
LMF                .         MR                            : Log Measure From
LATI               .dega     -22.08757333                  : Latitude
LONG               .dega     -39.87572194                  : Longitude
MC                 .         39 W                          : Meridiano Central
MDEC               .         0                             : Magnetic Declination
ORIG               .         SIGEO EXPORTACAO PERFIL       : Origem dos dados
ORIGINALWELLNAME   .         1RJS 0342  RJ                 : 
OPER               .         Petrobras                     : 
RWS                .         0                             : Def_Rw
STATE              .         RIO DE JANEIRO                : State
STAT               .         RIO DE JANEIRO                : State
Total_Depth        .         3087                          : 
TD                 .         3087                          : 
UTMZ               .         24                            : UTM Zone
WDMS               .M        953.00                        : Water Depth to Mean Sea Level
WST                .         0                             : Def_Rwt
Water_depth        .M        953                           : 
X                  .         409660.31000000               : 
XCOORD             .         409658.99                     : Surface X
Y                  .         7557220.24000000              : 
YCOORD             .         7557234.00                    : Surface Y
group              .         AB140                         : 
~Parameter Information Block
#_______________________________________________________________________________
#
#PARAMETER_NAME    .UNIT     VALUE                         : DESCRIPTION
#_______________________________________________________________________________
SET                .         BEST_SET                      : 
TLFamily_CALI      .         Caliper                       : 
TLFamily_DENS      .         Bulk Density                  : 
TLFamily_DT        .         Compressional Slowness        : 
TLFamily_Eletrofacies_TGS .         Lithology                     : 
TLFamily_GR        .         Gamma Ray                     : 
TLFamily_HDRA      .         Bulk Density Correction       : 
TLFamily_MD        .         Measured Depth                : 
TLFamily_NEUT      .         Neutron Porosity              : 
TLFamily_PAY_NET_FLAG .         Net Pay Flag                  : 
TLFamily_PERM_WR_MC_MEAN .         Permeability                  : 
TLFamily_PHIE_F    .         Effective Porosity            : 
TLFamily_PHIT_F    .         Total Porosity                : 
TLFamily_RES_D     .         Resistivity - Deep            : 
TLFamily_RES_NET_FLAG .         Net Reservoir Flag            : 
TLFamily_RES_S     .         Resistivity - Spherically Focused: 
TLFamily_RHOV      .         Acoustic Impedance            : 
TLFamily_ROCK_NET_FLAG .         Net Rock Flag                 : 
TLFamily_SWE_SIM   .         Effective Water Saturation    : 
TLFamily_VP        .         Compressional Velocity        : 
TLFamily_VSH_FINAL .         Shale Volume Fraction         : 
~Curve Information
#_______________________________________________________________________________
#
#LOGNAME           .UNIT     LOG_ID                        : DESCRIPTION
#_______________________________________________________________________________
DEPTH              .M                                      : Measured Depth 
CALI               .in                                     : CALIPER 
DENS               .g/cm3                                  : BULK DENSITY 
DT                 .us/ft                                  : DELTA-T (ALSO CALLED SLOWNESS OR INTERVAL TRANSIT TIME) 
Eletrofacies_TGS   .unitless                               : Description 
GR                 .gAPI                                   : GAMMA RAY 
HDRA               .g/cm3                                  : BULK DENSITIY CORRECTION 
NEUT               .frac                                   : THERMAL NEUTRON POROSITY (ORIGINAL RATIO METHOD) IN SELECTED LITHOLOGY 
PAY_NET_FLAG       .unitless                               : unitless 
PERM_WR_MC_MEAN    .mD                                     : Permeability (Wyllie-Rose) 
PHIE_F             .m3/m3                                  :  
PHIT_F             .m3/m3                                  :  
RES_D              .ohm.m                                  : INDUCTION DEEP RESISTIVITY 
RES_NET_FLAG       .unitless                               : unitless 
RES_S              .ohm.m                                  : SFL RESISTIVITY UNAVERAGED 
RHOV               .g.m/cm3.s                              : Impedance from Geophy 
ROCK_NET_FLAG      .unitless                               : unitless 
SWE_SIM            .m3/m3                                  :  
VP                 .m/s                                    : Compressional velocity 
VSH_FINAL          .m3/m3                                  : Final computation of Shale volume fraction 
~Ascii
# ...
2610.5024  14.616     2.1387     112.1264   1          69.7291    0.1021     0.42614    0          36.61399   0.008932619 0.2883125  1.2128     0          1.1628     5813.757   0          0.8295047  2718.361   0.9933509 
2610.6548  14.1228    2.1264     114.0327   1          71.4537    0.0938     0.431558   0          51.16635   0.02122042 0.296      1.1393     0          1.0783     5683.692   0          0.8947106  2672.918   0.9769943 
2610.8072  14.1807    2.1391     113.8655   1          73.1004    0.0694     0.428879   0          32.84337   0.006812526 0.2880624  1.0829     0          1.0568     5726.034   0          1          2676.843   1         
2610.9596  14.9069    2.1379     111.1866   1          72.6731    0.0713     0.415931   0          52.5287    0.03113976 0.2888124  1.0416     0          1.1094     5860.706   0          1          2741.338   0.9161697 
2611.112   15.1037    2.1518     108.5731   1          71.4256    0.093      0.399801   0          49.74146   0.03753882 0.280125   1.0181     0          1.1867     6040.802   0          1          2807.325   0.862529  
2611.2644  14.9331    2.1806     106.753    1          69.6704    0.1029     0.386255   0          22.61431   0.01051041 0.262125   1.0069     0          1.2726     6226.025   0          1          2855.189   0.89463   
2611.4168  14.5265    2.2138     106.143    1          67.6655    0.0835     0.379735   0          5.2424     0          0.241375   1.0066     0          1.3513     6357.144   0          1          2871.598   0.9971886 
2611.5692  14.1544    2.177      106.7472   1          65.9689    0.0399     0.388546   0          24.57801   0.01267709 0.2643749  1.0321     0          1.376      6216.084   0          1          2855.344   0.894926  
2611.7216  13.9395    2.1076     107.6425   1          64.7645    0.0148     0.401663   0          227.2802   0.1173859  0.30775    1.0995     0          1.3459     5967.87    0          1          2831.595   0.6768503 
2611.874   13.7539    2.07       108.0526   1          64.1395    0.0052     0.406064   0          609.9378   0.1796002  0.33125    1.1789     0          1.3197     5839.156   0          0.9885541  2820.848   0.5391997 
2612.0264  13.5396    2.0895     107.5411   1          64.2962    0.0066     0.394684   0          456.1498   0.1657758  0.3190625  1.2566     0          1.3396     5922.197   0          0.9779185  2834.265   0.5450194 
2612.1788  13.2447    2.1774     105.4665   1          65.8976    0.0057     0.357745   0          65.87206   0.07435454 0.2641249  1.3197     0          1.4903     6292.724   0          1          2890.017   0.6747393 
2612.3312  12.9553    2.2458     102.7814   1          67.1031    0.0048     0.317716   0          12.7228    0.02608921 0.2213749  1.403      0          1.7799     6659.958   0          1          2965.517   0.6943495 
2612.4836  12.6851    2.2839     100.7035   1          67.8907    0.0063     0.291289   0          4.851408   0.007576349 0.1975624  1.5427     0          2.1125     6912.697   0          0.9588162  3026.707   0.6755064 
2612.636   12.4891    2.2954     99.7535    1          68.4679    0.0101     0.283241   0          3.520009   0.00213333 0.190375   1.7829     0          2.4297     7013.667   0          1          3055.532   0.669304  
2612.7884  12.4868    2.2939     100.5721   1          69.3181    0.0145     0.296963   0          1.91936    0          0.1913124  2.2086     0          2.6412     6952.035   0          1          3030.662   0.761445  
2612.9408  12.5043    2.2869     102.5913   1          67.9278    0.0112     0.30098    0          2.498648   0          0.1956874  2.8837     0          2.909      6794.407   0          1          2971.012   0.7588649 
2613.0932  12.5145    2.2668     104.8857   2          64.1797    0.0047     0.295215   1          10.62374   0.1376394  0.2322425  3.64       1          3.4957     6587.368   1          0.3769314  2906.021   0.4459858 
2613.2456  12.5183    2.2343     107.185    2          59.2721    0.0001000  0.284199   1          66.64538   0.1869211  0.2519395  4.4682     1          4.8014     6353.638   1          0.2919257  2843.682   0.3065152 
2613.398   12.5207    2.1911     109.2328   3          54.9174    0.0035     0.274376   1          362.8998   0.2479293  0.2781213  5.3761     1          7.3345     6113.981   1          0.2296623  2790.37    0.1423339 
2613.5504  12.5343    2.169      110.9673   3          53.1635    0.0132     0.270595   1          720.9158   0.2779782  0.2915153  6.6969     1          14.1232    5957.712   1          0.1931623  2746.755   0.06381752
2613.7028  12.5836    2.1591     112.4748   3          51.9058    0.0189     0.27174    1          906.3727   0.2887893  0.2975152  8.8182     1          23.8601    5851.032   1          0.164276   2709.94    0.04113594
2613.8552  12.6556    2.1528     113.7444   3          51.0176    0.0189     0.274904   1          996.6605   0.2933962  0.3013333  12.0376    1          32.0268    5768.842   1          0.1385876  2679.692   0.03741772
2614.0076  12.7354    2.1422     114.7591   3          50.3868    0.013      0.277702   1          1221.277   0.3035049  0.3077576  16.534     1          34.5419    5689.68    1          0.1158508  2655.999   0.02004862
2614.16    12.7771    2.1248     115.2858   3          49.6397    0.0171     0.285322   1          1593.741   0.3172729  0.3183031  21.2489    1          30.1128    5617.683   1          0.09935392 2643.864   0.004856575
2614.3124  12.725     2.1129     115.2398   3          48.3371    0.028      0.298387   1          1657.654   0.3193589  0.3255152  24.6605    1          26.3528    5588.451   1          0.09003021 2644.92    0.02902264
2614.4648  12.6531    2.1059     114.5608   3          47.3116    0.0358     0.309515   1          1596.75    0.3173726  0.3297576  25.761     1          24.4347    5602.949   1          0.08650521 2660.596   0.05838598
2614.6172  12.6064    2.1035     113.2725   3          47.2201    0.0345     0.314418   1          1546.235   0.3156767  0.3312122  24.0564    1          24.7946    5660.216   1          0.08904318 2690.856   0.07323869
2614.7696  12.6085    2.1077     111.7723   3          49.3989    0.021      0.31214    1          1462.543   0.3127626  0.3286666  20.0232    1          25.8751    5747.641   1          0.09869113 2726.973   0.07497623
2614.922   12.6304    2.1243     110.9464   3          52.4491    0.0085     0.311349   1          1000.432   0.293581   0.3186061  17.5213    1          23.1877    5836.031   1          0.1081815  2747.272   0.1179755 
2615.0744  12.7025    2.1447     110.8087   3          56.1451    0.0014     0.314515   1          555.3154   0.266146   0.3062424  16.5939    1          18.5159    5899.397   1          0.1142719  2750.687   0.189026  
2615.2268  12.8077    2.1625     111.1788   3          59.7148    0.0003     0.321797   1          283.902    0.2379896  0.2954547  17.2332    1          13.4344    5928.558   1          0.1136383  2741.53    0.2709064 
2615.3792  12.8421    2.1649     111.3544   3          60.5274    0.002      0.330608   1          213.1397   0.2268858  0.294      19.3496    1          11.6098    5925.779   1          0.1050156  2737.207   0.3163952 
2615.5316  12.8668    2.1615     110.8486   3          56.9825    0.004      0.327404   1          256.2292   0.2339563  0.2960607  21.489     1          13.1333    5943.469   1          0.09841923 2749.697   0.2927774 
2615.684   12.8841    2.1568     109.9305   3          52.0367    0.0058     0.312087   1          418.5192   0.2538921  0.2989091  22.5974    1          17.12      5980.075   1          0.09703545 2772.661   0.2122228 
2615.8364  12.8506    2.1514     108.6598   3          47.3912    0.0059     0.290688   1          758.5289   0.2803445  0.3021818  23.331     1          23.0944    6034.861   1          0.09712894 2805.085   0.1029473 
2615.9888  12.6675    2.1448     107.0524   3          45.5725    0.0009     0.276716   1          1169.122   0.3013052  0.3061819  25.611     1          30.381     6106.683   1          0.09313321 2847.204   0.02299005
