~Version
 VERS              .         2.0                           : CWLS LOG ASCII STANDARD - VERSION 2.0
 WRAP              .         NO                            : ONE LINE PER DEPTH STEP
 DLM               .         SPACE                         : DELIMITING CHARACTER(SPACE TAB OR COMMA)
~Well Information
#_______________________________________________________________________________
#
#PARAMETER_NAME    .UNIT     VALUE                         : DESCRIPTION
#_______________________________________________________________________________
STRT               .M        953                           : First reference value
STOP               .M        3080.3516                     : Last reference value
STEP               .M        0.1524                        : Step increment
NULL               .         -9999                         : Missing value
COMP               .         PETROLEO BRASILEIRO S/A       : Company
WELL               .         WELL1                         : Well name
FLD                .                                       : Field
LOC                .                                       : Location
PROV               .                                       : Province
SRVC               .         SCH                           : Service Company
DATE               .         04/09/2021                    : Date
UWI                .         7.43E+11                      : Unique Well ID
API                .         742810147700                  : API Code
COORDIN            .                                       : Grid System
COUNT              .         BRASIL                        : Country
CRS_Data           .         <?xml version="1.0" encoding="utf-8"?><!--INFO_ This file accompanies a data file and contains the spatial context.--><!--INFO_ It was made by serializing an Ocean spatial companion information record.--><!--INFO_ The coordinate reference system (CRS) is verbosely defined as ESRI well-known-text (WKT).--><SpatialCompanion version="1.0"><ILateBoundCoordinateReferenceSystem name="SIRGAS_2000_UTM_Zone_24S" crsType="Projected" engine="ESRI" engineVersion="PE_10_7_1"><AuthorityCode>EPSG,31984</AuthorityCode><WKT>PROJCS["SIRGAS_2000_UTM_Zone_24S",GEOGCS["GCS_SIRGAS_2000",DATUM["D_SIRGAS_2000",SPHEROID["GRS_1980",6378137.0,298.257222101]],PRIMEM["Greenwich",0.0],UNIT["Degree",0.0174532925199433]],PROJECTION["Transverse_Mercator"],PARAMETER["False_Easting",500000.0],PARAMETER["False_Northing",10000000.0],PARAMETER["Central_Meridian",-39.0],PARAMETER["Scale_Factor",0.9996],PARAMETER["Latitude_Of_Origin",0.0],UNIT["Meter",1.0],AUTHORITY["EPSG",31984]]</WKT></ILateBoundCoordinateReferenceSystem><Info history="" /></SpatialCompanion>: 
EDF                .M        13.00                         : Elevation Derrick Floor
EREF               .         13                            : 
DREF               .         MR                            : 
GDAT               .         SIRGAS2000                    : Geodetic Datum
HZCS               .         SIRGAS_2000_UTM_Zone_24S      : ESRI,PE_10_7_1- <?xml version="1.0" encoding="utf-16"?><ILateBoundCoordinateReferenceSystem name="SIRGAS_2000_UTM_Zone_24S"><AuthorityCode>EPSG,31984</AuthorityCode></ILateBoundCoordinateReferenceSystem>
Horizontal_coordinate_system_authority .         EPSG                          : 
Horizontal_coordinate_system_code .         31984                         : 
LAT                .         -22.087448                    : Latitude
LMF                .         MR                            : Log Measure From
LATI               .dega     -22.08757333                  : Latitude
LONG               .dega     -39.87572194                  : Longitude
MC                 .         39 W                          : Meridiano Central
MDEC               .         0                             : Magnetic Declination
ORIG               .         SIGEO EXPORTACAO PERFIL       : Origem dos dados
ORIGINALWELLNAME   .         1RJS 0342  RJ                 : 
OPER               .         Petrobras                     : 
RWS                .         0                             : Def_Rw
STATE              .         RIO DE JANEIRO                : State
STAT               .         RIO DE JANEIRO                : State
Total_Depth        .         3087                          : 
TD                 .         3087                          : 
UTMZ               .         24                            : UTM Zone
WDMS               .M        953.00                        : Water Depth to Mean Sea Level
WST                .         0                             : Def_Rwt
Water_depth        .M        953                           : 
X                  .         409660.31000000               : 
XCOORD             .         409658.99                     : Surface X
Y                  .         7557220.24000000              : 
YCOORD             .         7557234.00                    : Surface Y
group              .         AB140                         : 
~Parameter Information Block
#_______________________________________________________________________________
#
#PARAMETER_NAME    .UNIT     VALUE                         : DESCRIPTION
#_______________________________________________________________________________
SET                .         BEST_SET                      : 
TLFamily_CALI      .         Caliper                       : 
TLFamily_DENS      .         Bulk Density                  : 
TLFamily_DT        .         Compressional Slowness        : 
TLFamily_Eletrofacies_TGS .         Lithology                     : 
TLFamily_GR        .         Gamma Ray                     : 
TLFamily_HDRA      .         Bulk Density Correction       : 
TLFamily_MD        .         Measured Depth                : 
TLFamily_NEUT      .         Neutron Porosity              : 
TLFamily_PAY_NET_FLAG .         Net Pay Flag                  : 
TLFamily_PERM_WR_MC_MEAN .         Permeability                  : 
TLFamily_PHIE_F    .         Effective Porosity            : 
TLFamily_PHIT_F    .         Total Porosity                : 
TLFamily_RES_D     .         Resistivity - Deep            : 
TLFamily_RES_NET_FLAG .         Net Reservoir Flag            : 
TLFamily_RES_S     .         Resistivity - Spherically Focused: 
TLFamily_RHOV      .         Acoustic Impedance            : 
TLFamily_ROCK_NET_FLAG .         Net Rock Flag                 : 
TLFamily_SWE_SIM   .         Effective Water Saturation    : 
TLFamily_VP        .         Compressional Velocity        : 
TLFamily_VSH_FINAL .         Shale Volume Fraction         : 
~Curve Information
#_______________________________________________________________________________
#
#LOGNAME           .UNIT     LOG_ID                        : DESCRIPTION
#_______________________________________________________________________________
DEPTH              .M                                      : Measured Depth 
CALI               .in                                     : CALIPER 
DENS               .g/cm3                                  : BULK DENSITY 
DT                 .us/ft                                  : DELTA-T (ALSO CALLED SLOWNESS OR INTERVAL TRANSIT TIME) 
Eletrofacies_TGS   .unitless                               : Description 
GR                 .gAPI                                   : GAMMA RAY 
HDRA               .g/cm3                                  : BULK DENSITIY CORRECTION 
NEUT               .frac                                   : THERMAL NEUTRON POROSITY (ORIGINAL RATIO METHOD) IN SELECTED LITHOLOGY 
PAY_NET_FLAG       .unitless                               : unitless 
PERM_WR_MC_MEAN    .mD                                     : Permeability (Wyllie-Rose) 
PHIE_F             .m3/m3                                  :  
PHIT_F             .m3/m3                                  :  
RES_D              .ohm.m                                  : INDUCTION DEEP RESISTIVITY 
RES_NET_FLAG       .unitless                               : unitless 
RES_S              .ohm.m                                  : SFL RESISTIVITY UNAVERAGED 
RHOV               .g.m/cm3.s                              : Impedance from Geophy 
ROCK_NET_FLAG      .unitless                               : unitless 
SWE_SIM            .m3/m3                                  :  
VP                 .m/s                                    : Compressional velocity 
VSH_FINAL          .m3/m3                                  : Final computation of Shale volume fraction 
~Ascii
# ...
2723.2784  12.38      2.1771     107.5087   3          39.1872    0.0224     0.291957   0          366.3473   0.2483203  0.2866061  0.2485     1          0.4335     6172.338   1          1          2835.119   0.1804905 
2723.4308  12.3499    2.1601     107.8369   3          37.3345    0.0161     0.319322   0          323.1337   0.2431795  0.2969092  0.2475     1          0.433      6105.503   1          1          2826.491   0.2532966 
2723.5832  12.3589    2.1528     108.0966   3          36.8761    0.0053     0.335723   0          274.3208   0.2366318  0.3013333  0.2501     1          0.4298     6070.25    1          1          2819.7     0.3050214 
2723.7356  12.4463    2.1531     107.6633   3          36.3253    -0.0053    0.344627   0          219.2748   0.2279615  0.3011515  0.2546     1          0.4229     6095.53    1          1          2831.048   0.3450387 
2723.888   12.5255    2.1555     106.6325   3          35.8345    -0.0123    0.344365   0          204.4979   0.2253261  0.299697   0.2594     1          0.4189     6161.314   1          1          2858.416   0.3506058 
2724.0404  12.5709    2.1624     105.3026   3          35.7427    -0.0132    0.33001    0          233.9983   0.230444   0.2955152  0.2637     1          0.423      6259.1     1          1          2894.516   0.3067639 
2724.1928  12.5592    2.1798     104.1924   3          36.6238    -0.0047    0.2931     0          329.8387   0.2440134  0.2849697  0.2664     1          0.4424     6376.694   1          1          2925.357   0.19308   
2724.3452  12.5446    2.2118     104.0717   3          38.5171    0.0084     0.251441   0          333.7645   0.244495   0.2655757  0.2677     1          0.4697     6477.81    1          1          2928.75    0.09938052
2724.4976  12.5209    2.2405     104.3941   3          40.718     0.0163     0.22716    0          248.1954   0.2327175  0.2481819  0.2689     1          0.4863     6541.6     1          1          2919.705   0.07290372
2724.65    12.5092    2.255      104.8484   3          42.8825    0.0189     0.223008   0          173.2901   0.2191925  0.2393939  0.2696     1          0.4854     6555.408   1          1          2907.054   0.09523538
2724.8024  12.5327    2.2447     105.1158   3          44.6463    0.0172     0.239864   0          157.8973   0.2158204  0.2456364  0.2696     1          0.4609     6508.865   1          1          2899.659   0.1405613 
2724.9548  12.5331    2.2123     105.4656   3          44.4766    0.0175     0.259628   0          271.7024   0.2362539  0.2652727  0.2692     1          0.4423     6393.64    1          1          2890.042   0.1368032 
2725.1072  12.452     2.1849     105.8476   3          44.1482    0.0148     0.277453   0          404.9108   0.2524972  0.2818788  0.2688     1          0.4397     6291.664   1          1          2879.612   0.1385132 
2725.2596  12.3509    2.1668     106.1091   3          44.5449    0.0097     0.295951   0          449.7137   0.2569524  0.2928485  0.2685     1          0.4468     6224.166   1          1          2872.515   0.1692244 
2725.412   12.2847    2.1613     106.1659   3          46.2037    0.0033     0.316293   0          334.3515   0.2445666  0.2961819  0.2682     1          0.4583     6205.045   1          1          2870.978   0.2433289 
2725.5644  12.3593    2.1698     106.3097   3          48.0134    0.0002     0.330253   0          183.7157   0.2213372  0.2910303  0.2681     1          0.4683     6221.022   1          1          2867.095   0.3285533 
2725.7168  12.4542    2.1819     106.671    3          48.6741    -0.0006    0.330714   0          120.7573   0.206387   0.283697   0.268      1          0.4732     6234.526   1          1          2857.384   0.3644615 
2725.8692  12.5218    2.1917     107.1735   3          48.6125    -0.0013    0.32099    0          111.6351   0.2037027  0.2777576  0.2676     1          0.4705     6233.165   1          1          2843.987   0.3491158 
2726.0216  12.5433    2.196      107.7187   3          47.9832    -0.0029    0.304919   0          148.1569   0.2135422  0.2751515  0.2666     1          0.4591     6213.785   1          1          2829.593   0.2904438 
2726.174   12.533     2.1922     107.9717   3          46.5961    -0.0044    0.294769   0          217.0579   0.2275757  0.2774546  0.2643     1          0.4407     6188.497   1          1          2822.962   0.2351433 
2726.3264  12.535     2.1858     107.9286   3          44.6235    0.002      0.288875   0          304.2912   0.2407566  0.2813333  0.2606     1          0.4271     6172.895   1          1          2824.089   0.1912901 
2726.4788  12.5281    2.1832     107.65     3          42.7922    0.0121     0.279436   0          406.7368   0.2526866  0.2829092  0.2562     1          0.4219     6181.508   1          1          2831.398   0.1424779 
2726.6312  12.5042    2.1878     107.2073   3          41.5132    0.0222     0.266284   0          476.4958   0.2594417  0.2801213  0.251      1          0.4257     6220.112   1          1          2843.09    0.09748933
2726.7836  12.4562    2.2036     106.7636   3          41.431     0.0242     0.255037   0          390.5204   0.2509789  0.2705455  0.2445     1          0.4376     6291.069   1          1          2854.906   0.09224248
2726.936   12.4114    2.2104     106.818    3          41.1809    0.0253     0.262819   0          266.9192   0.2355555  0.2664242  0.2369     1          0.4437     6307.27    1          1          2853.452   0.1455237 
2727.0884  12.3629    2.2019     107.0321   3          40.3458    0.0268     0.286523   0          195.4443   0.2236319  0.2715758  0.23       1          0.4352     6270.447   1          1          2847.744   0.226021  
2727.2408  12.3145    2.1804     106.9355   3          39.4961    0.0246     0.321853   0          160.7142   0.2164574  0.2846062  0.226      1          0.4103     6214.829   1          1          2850.316   0.3212727 
2727.3932  12.2739    2.1518     105.7777   2          39.7534    0.0114     0.361887   0          147.6169   0.2134123  0.3019395  0.2288     1          0.3675     6200.443   1          1          2881.515   0.4173425 
2727.5456  12.3671    2.1385     101.796    4          41.135     -0.0001000 0.379354   0          146.2008   0.2130697  0.3100001  0.2419     0          0.3348     6403.147   0          1          2994.224   0.4569574 
2727.698   12.4904    2.1533     95.404     4          42.1078    -0.0009    0.36073    0          144.6525   0.2126919  0.3010303  0.2605     1          0.3399     6879.438   1          1          3194.835   0.4164522 
2727.8504  12.605     2.170567   87.1899    4          42.4864    0.0083     0.302057   0          352.5203   0.2467331  0.2905655  0.2841     1          0.4994     7587.907   1          1          3495.818   0.2066384 
2728.0028  12.6745    2.183252   77.8768    4          42.1771    0.0259     0.201598   0          343.1126   0.2456232  0.2456232  0.3123     1          0.9665     8544.974   1          1          3913.874   0         
2728.1552  12.7184    2.191795   69.9234    4          41.5044    0.041      0.103014   0          131.8752   0.2094388  0.2094388  0.3454     1          3.5948     9554.156   1          1          4359.056   0         
2728.3076  12.7391    2.1966     64.4733    4          40.2519    0.0592     0.043276   0          672.6721   0.2747877  0.2747877  0.3798     1          7.6903     10384.51   1          0.8426273  4727.539   0         
2728.46    12.7461    2.198116   62.0621    4          38.9094    0.0735     0.018655   0          659.2925   0.2738691  0.2738691  0.4094     1          10.3578    10795.41   1          0.8139077  4911.21    0         
2728.6124  12.7438    2.196772   63.1024    4          37.9368    0.0777     0.025671   0          671.1454   0.2746836  0.2746836  0.4279     1          9.5711     10610.95   1          0.7941118  4830.244   0         
2728.7648  12.7019    2.192991   68.3888    4          38.4787    0.0563     0.061598   0          705.4437   0.2769749  0.2769749  0.4143     1          5.6986     9773.878   1          0.8013622  4456.87    0         
