~Version
 VERS              .         2.0                           : CWLS LOG ASCII STANDARD - VERSION 2.0
 WRAP              .         NO                            : ONE LINE PER DEPTH STEP
 DLM               .         SPACE                         : DELIMITING CHARACTER(SPACE TAB OR COMMA)
~Well Information
#_______________________________________________________________________________
#
#PARAMETER_NAME    .UNIT     VALUE                         : DESCRIPTION
#_______________________________________________________________________________
STRT               .M        953                           : First reference value
STOP               .M        3080.3516                     : Last reference value
STEP               .M        0.1524                        : Step increment
NULL               .         -9999                         : Missing value
COMP               .         PETROLEO BRASILEIRO S/A       : Company
WELL               .         WELL1                         : Well name
FLD                .                                       : Field
LOC                .                                       : Location
PROV               .                                       : Province
SRVC               .         SCH                           : Service Company
DATE               .         04/09/2021                    : Date
UWI                .         7.43E+11                      : Unique Well ID
API                .         742810147700                  : API Code
COORDIN            .                                       : Grid System
COUNT              .         BRASIL                        : Country
CRS_Data           .         <?xml version="1.0" encoding="utf-8"?><!--INFO_ This file accompanies a data file and contains the spatial context.--><!--INFO_ It was made by serializing an Ocean spatial companion information record.--><!--INFO_ The coordinate reference system (CRS) is verbosely defined as ESRI well-known-text (WKT).--><SpatialCompanion version="1.0"><ILateBoundCoordinateReferenceSystem name="SIRGAS_2000_UTM_Zone_24S" crsType="Projected" engine="ESRI" engineVersion="PE_10_7_1"><AuthorityCode>EPSG,31984</AuthorityCode><WKT>PROJCS["SIRGAS_2000_UTM_Zone_24S",GEOGCS["GCS_SIRGAS_2000",DATUM["D_SIRGAS_2000",SPHEROID["GRS_1980",6378137.0,298.257222101]],PRIMEM["Greenwich",0.0],UNIT["Degree",0.0174532925199433]],PROJECTION["Transverse_Mercator"],PARAMETER["False_Easting",500000.0],PARAMETER["False_Northing",10000000.0],PARAMETER["Central_Meridian",-39.0],PARAMETER["Scale_Factor",0.9996],PARAMETER["Latitude_Of_Origin",0.0],UNIT["Meter",1.0],AUTHORITY["EPSG",31984]]</WKT></ILateBoundCoordinateReferenceSystem><Info history="" /></SpatialCompanion>: 
EDF                .M        13.00                         : Elevation Derrick Floor
EREF               .         13                            : 
DREF               .         MR                            : 
GDAT               .         SIRGAS2000                    : Geodetic Datum
HZCS               .         SIRGAS_2000_UTM_Zone_24S      : ESRI,PE_10_7_1- <?xml version="1.0" encoding="utf-16"?><ILateBoundCoordinateReferenceSystem name="SIRGAS_2000_UTM_Zone_24S"><AuthorityCode>EPSG,31984</AuthorityCode></ILateBoundCoordinateReferenceSystem>
Horizontal_coordinate_system_authority .         EPSG                          : 
Horizontal_coordinate_system_code .         31984                         : 
LAT                .         -22.087448                    : Latitude
LMF                .         MR                            : Log Measure From
LATI               .dega     -22.08757333                  : Latitude
LONG               .dega     -39.87572194                  : Longitude
MC                 .         39 W                          : Meridiano Central
MDEC               .         0                             : Magnetic Declination
ORIG               .         SIGEO EXPORTACAO PERFIL       : Origem dos dados
ORIGINALWELLNAME   .         1RJS 0342  RJ                 : 
OPER               .         Petrobras                     : 
RWS                .         0                             : Def_Rw
STATE              .         RIO DE JANEIRO                : State
STAT               .         RIO DE JANEIRO                : State
Total_Depth        .         3087                          : 
TD                 .         3087                          : 
UTMZ               .         24                            : UTM Zone
WDMS               .M        953.00                        : Water Depth to Mean Sea Level
WST                .         0                             : Def_Rwt
Water_depth        .M        953                           : 
X                  .         409660.31000000               : 
XCOORD             .         409658.99                     : Surface X
Y                  .         7557220.24000000              : 
YCOORD             .         7557234.00                    : Surface Y
group              .         AB140                         : 
~Parameter Information Block
#_______________________________________________________________________________
#
#PARAMETER_NAME    .UNIT     VALUE                         : DESCRIPTION
#_______________________________________________________________________________
SET                .         BEST_SET                      : 
TLFamily_CALI      .         Caliper                       : 
TLFamily_DENS      .         Bulk Density                  : 
TLFamily_DT        .         Compressional Slowness        : 
TLFamily_Eletrofacies_TGS .         Lithology                     : 
TLFamily_GR        .         Gamma Ray                     : 
TLFamily_HDRA      .         Bulk Density Correction       : 
TLFamily_MD        .         Measured Depth                : 
TLFamily_NEUT      .         Neutron Porosity              : 
TLFamily_PAY_NET_FLAG .         Net Pay Flag                  : 
TLFamily_PERM_WR_MC_MEAN .         Permeability                  : 
TLFamily_PHIE_F    .         Effective Porosity            : 
TLFamily_PHIT_F    .         Total Porosity                : 
TLFamily_RES_D     .         Resistivity - Deep            : 
TLFamily_RES_NET_FLAG .         Net Reservoir Flag            : 
TLFamily_RES_S     .         Resistivity - Spherically Focused: 
TLFamily_RHOV      .         Acoustic Impedance            : 
TLFamily_ROCK_NET_FLAG .         Net Rock Flag                 : 
TLFamily_SWE_SIM   .         Effective Water Saturation    : 
TLFamily_VP        .         Compressional Velocity        : 
TLFamily_VSH_FINAL .         Shale Volume Fraction         : 
~Curve Information
#_______________________________________________________________________________
#
#LOGNAME           .UNIT     LOG_ID                        : DESCRIPTION
#_______________________________________________________________________________
DEPTH              .M                                      : Measured Depth 
CALI               .in                                     : CALIPER 
DENS               .g/cm3                                  : BULK DENSITY 
DT                 .us/ft                                  : DELTA-T (ALSO CALLED SLOWNESS OR INTERVAL TRANSIT TIME) 
Eletrofacies_TGS   .unitless                               : Description 
GR                 .gAPI                                   : GAMMA RAY 
HDRA               .g/cm3                                  : BULK DENSITIY CORRECTION 
NEUT               .frac                                   : THERMAL NEUTRON POROSITY (ORIGINAL RATIO METHOD) IN SELECTED LITHOLOGY 
PAY_NET_FLAG       .unitless                               : unitless 
PERM_WR_MC_MEAN    .mD                                     : Permeability (Wyllie-Rose) 
PHIE_F             .m3/m3                                  :  
PHIT_F             .m3/m3                                  :  
RES_D              .ohm.m                                  : INDUCTION DEEP RESISTIVITY 
RES_NET_FLAG       .unitless                               : unitless 
RES_S              .ohm.m                                  : SFL RESISTIVITY UNAVERAGED 
RHOV               .g.m/cm3.s                              : Impedance from Geophy 
ROCK_NET_FLAG      .unitless                               : unitless 
SWE_SIM            .m3/m3                                  :  
VP                 .m/s                                    : Compressional velocity 
VSH_FINAL          .m3/m3                                  : Final computation of Shale volume fraction 
~Ascii
# ...
3072.884   8.2578     2.288118   -9999      -9999      -9999      0.0105     0.09727    0          -9999      0.1949264  0.1949264  3.1672     1          -9999      -9999      1          0.9115732  -9999      0         
3073.0364  8.2627     2.283229   -9999      -9999      -9999      0.0215     0.112703   0          -9999      0.1979819  0.1979819  1.9687     1          -9999      -9999      1          1          -9999      0         
3073.1888  8.2593     2.28474    -9999      -9999      -9999      0.0487     0.136307   0          -9999      0.1970372  0.1970372  1.4389     1          -9999      -9999      1          1          -9999      0         
3073.3412  8.251      2.295674   -9999      -9999      -9999      0.0542     0.177686   0          -9999      0.1902035  0.1902035  1.2125     1          -9999      -9999      1          1          -9999      0         
3073.4936  8.2219     2.318993   -9999      -9999      -9999      0.0388     0.217114   0          -9999      0.09153871 0.1756293  1.1047     0          -9999      -9999      1          1          -9999      0.2989888 
3073.646   8.1789     2.3577     -9999      -9999      -9999      0.0164     0.235686   0          -9999      0          0.1514374  1.061      0          -9999      -9999      0          1          -9999      0.6071969 
3073.7984  8.1339     2.412312   -9999      -9999      -9999      0.006      0.210355   0          -9999      0          0.1173052  1.0283     0          -9999      -9999      0          1          -9999      0.6706285 
3073.9508  8.1555     2.473428   -9999      -9999      -9999      0.0255     0.172434   0          -9999      0          0.07910744 0.9992     0          -9999      -9999      0          1          -9999      0.6726235 
3074.1032  8.2291     2.529251   -9999      -9999      -9999      0.0453     0.158276   0          -9999      0          0.04421801 1.0409     0          -9999      -9999      0          1          -9999      0.822039  
3074.2556  8.3192     2.567707   -9999      -9999      -9999      0.0659     0.162889   0          -9999      0          0.02018303 1.1169     0          -9999      -9999      0          1          -9999      1         
3074.408   8.391      2.577016   -9999      -9999      -9999      0.0878     0.180127   0          -9999      0          0.01436487 1.1868     0          -9999      -9999      0          1          -9999      1         
3074.5604  8.3834     2.5453     -9999      -9999      -9999      0.1        0.19629    0          -9999      0          0.03418744 1.1379     0          -9999      -9999      0          1          -9999      1         
3074.7128  8.3695     2.4716     -9999      -9999      -9999      0.0819     0.223394   0          -9999      0          0.08024991 1.0409     0          -9999      -9999      0          1          -9999      1         
3074.8652  8.322      2.3907     -9999      -9999      -9999      0.0484     0.250103   0          -9999      0          0.1308124  0.8933     0          -9999      -9999      0          1          -9999      0.8597516 
3075.0176  8.2227     2.3243     -9999      -9999      -9999      0.0132     0.266903   0          -9999      0          0.1723124  0.7024     0          -9999      -9999      0          1          -9999      0.6817335 
3075.17    8.0499     2.3074     -9999      -9999      -9999      0.0126     0.251455   0          -9999      0.04386149 0.182875   0.5294     0          -9999      -9999      0          1          -9999      0.4942703 
3075.3224  7.979      2.299      -9999      -9999      -9999      0.0235     0.24192    0          -9999      0.07908101 0.1881249  0.4136     0          -9999      -9999      1          1          -9999      0.3877119 
3075.4748  7.9623     2.2855     -9999      -9999      -9999      0.0311     0.246255   0          -9999      0.09583433 0.1965624  0.3421     0          -9999      -9999      1          1          -9999      0.3581445 
3075.6272  7.9713     2.264      -9999      -9999      -9999      0.0306     0.262888   0          -9999      0.1027947  0.21       0.3064     0          -9999      -9999      1          1          -9999      0.3811745 
3075.7796  7.9594     2.2405     -9999      -9999      -9999      0.0226     0.276044   0          -9999      0.1205865  0.2246875  0.2894     0          -9999      -9999      1          1          -9999      0.370137  
3075.932   7.9574     2.2241     -9999      -9999      -9999      0.0165     0.277852   0          -9999      0.1479484  0.2349374  0.2706     1          -9999      -9999      1          1          -9999      0.3092943 
3076.0844  7.967      2.2134     -9999      -9999      -9999      0.0134     -9999      0          -9999      -9999      -9999      0.2557     0          -9999      -9999      0          -9999      -9999      -9999     
3076.2368  7.9813     2.2084     -9999      -9999      -9999      0.0116     -9999      0          -9999      -9999      -9999      0.246      0          -9999      -9999      0          -9999      -9999      -9999     
3076.3892  7.9848     2.2097     -9999      -9999      -9999      0.007      -9999      0          -9999      -9999      -9999      0.2421     0          -9999      -9999      0          -9999      -9999      -9999     
3076.5416  7.9871     2.2208     -9999      -9999      -9999      0.0023     -9999      0          -9999      -9999      -9999      0.2379     0          -9999      -9999      0          -9999      -9999      -9999     
3076.694   7.9924     2.2377     -9999      -9999      -9999      0.0039     -9999      0          -9999      -9999      -9999      0.237      0          -9999      -9999      0          -9999      -9999      -9999     
3076.8464  7.9968     2.2534     -9999      -9999      -9999      0.0097     -9999      0          -9999      -9999      -9999      0.2398     0          -9999      -9999      0          -9999      -9999      -9999     
3076.9988  7.9945     2.259      -9999      -9999      -9999      0.0163     -9999      0          -9999      -9999      -9999      0.2465     0          -9999      -9999      0          -9999      -9999      -9999     
3077.1512  7.9829     2.2467     -9999      -9999      -9999      0.0087     -9999      0          -9999      -9999      -9999      0.2628     0          -9999      -9999      0          -9999      -9999      -9999     
3077.3036  7.9606     2.2418     -9999      -9999      -9999      0.002      -9999      0          -9999      -9999      -9999      0.2755     0          -9999      -9999      0          -9999      -9999      -9999     
3077.456   7.9172     2.2491     -9999      -9999      -9999      0.0003     -9999      0          -9999      -9999      -9999      0.29       0          -9999      -9999      0          -9999      -9999      -9999     
3077.6084  7.8478     2.2715     -9999      -9999      -9999      0.0066     -9999      0          -9999      -9999      -9999      0.3116     0          -9999      -9999      0          -9999      -9999      -9999     
3077.7608  7.8089     2.2943     -9999      -9999      -9999      0.0145     -9999      0          -9999      -9999      -9999      0.3495     0          -9999      -9999      0          -9999      -9999      -9999     
3077.9132  7.8045     2.3152     -9999      -9999      -9999      0.014      -9999      0          -9999      -9999      -9999      0.406      0          -9999      -9999      0          -9999      -9999      -9999     
3078.0656  7.8179     2.3425     -9999      -9999      -9999      0.0129     -9999      0          -9999      -9999      -9999      0.4817     0          -9999      -9999      0          -9999      -9999      -9999     
3078.218   7.8416     2.3808     -9999      -9999      -9999      0.0178     -9999      0          -9999      -9999      -9999      0.5836     0          -9999      -9999      0          -9999      -9999      -9999     
3078.3704  7.8842     2.4292     -9999      -9999      -9999      0.0451     -9999      0          -9999      -9999      -9999      0.7585     0          -9999      -9999      0          -9999      -9999      -9999     
