~Version
 VERS              .         2.0                           : CWLS LOG ASCII STANDARD - VERSION 2.0
 WRAP              .         NO                            : ONE LINE PER DEPTH STEP
 DLM               .         SPACE                         : DELIMITING CHARACTER(SPACE TAB OR COMMA)
~Well Information
#_______________________________________________________________________________
#
#PARAMETER_NAME    .UNIT     VALUE                         : DESCRIPTION
#_______________________________________________________________________________
STRT               .M        953                           : First reference value
STOP               .M        3080.3516                     : Last reference value
STEP               .M        0.1524                        : Step increment
NULL               .         -9999                         : Missing value
COMP               .         PETROLEO BRASILEIRO S/A       : Company
WELL               .         WELL1                         : Well name
FLD                .                                       : Field
LOC                .                                       : Location
PROV               .                                       : Province
SRVC               .         SCH                           : Service Company
DATE               .         04/09/2021                    : Date
UWI                .         7.43E+11                      : Unique Well ID
API                .         742810147700                  : API Code
COORDIN            .                                       : Grid System
COUNT              .         BRASIL                        : Country
CRS_Data           .         <?xml version="1.0" encoding="utf-8"?><!--INFO_ This file accompanies a data file and contains the spatial context.--><!--INFO_ It was made by serializing an Ocean spatial companion information record.--><!--INFO_ The coordinate reference system (CRS) is verbosely defined as ESRI well-known-text (WKT).--><SpatialCompanion version="1.0"><ILateBoundCoordinateReferenceSystem name="SIRGAS_2000_UTM_Zone_24S" crsType="Projected" engine="ESRI" engineVersion="PE_10_7_1"><AuthorityCode>EPSG,31984</AuthorityCode><WKT>PROJCS["SIRGAS_2000_UTM_Zone_24S",GEOGCS["GCS_SIRGAS_2000",DATUM["D_SIRGAS_2000",SPHEROID["GRS_1980",6378137.0,298.257222101]],PRIMEM["Greenwich",0.0],UNIT["Degree",0.0174532925199433]],PROJECTION["Transverse_Mercator"],PARAMETER["False_Easting",500000.0],PARAMETER["False_Northing",10000000.0],PARAMETER["Central_Meridian",-39.0],PARAMETER["Scale_Factor",0.9996],PARAMETER["Latitude_Of_Origin",0.0],UNIT["Meter",1.0],AUTHORITY["EPSG",31984]]</WKT></ILateBoundCoordinateReferenceSystem><Info history="" /></SpatialCompanion>: 
EDF                .M        13.00                         : Elevation Derrick Floor
EREF               .         13                            : 
DREF               .         MR                            : 
GDAT               .         SIRGAS2000                    : Geodetic Datum
HZCS               .         SIRGAS_2000_UTM_Zone_24S      : ESRI,PE_10_7_1- <?xml version="1.0" encoding="utf-16"?><ILateBoundCoordinateReferenceSystem name="SIRGAS_2000_UTM_Zone_24S"><AuthorityCode>EPSG,31984</AuthorityCode></ILateBoundCoordinateReferenceSystem>
Horizontal_coordinate_system_authority .         EPSG                          : 
Horizontal_coordinate_system_code .         31984                         : 
LAT                .         -22.087448                    : Latitude
LMF                .         MR                            : Log Measure From
LATI               .dega     -22.08757333                  : Latitude
LONG               .dega     -39.87572194                  : Longitude
MC                 .         39 W                          : Meridiano Central
MDEC               .         0                             : Magnetic Declination
ORIG               .         SIGEO EXPORTACAO PERFIL       : Origem dos dados
ORIGINALWELLNAME   .         1RJS 0342  RJ                 : 
OPER               .         Petrobras                     : 
RWS                .         0                             : Def_Rw
STATE              .         RIO DE JANEIRO                : State
STAT               .         RIO DE JANEIRO                : State
Total_Depth        .         3087                          : 
TD                 .         3087                          : 
UTMZ               .         24                            : UTM Zone
WDMS               .M        953.00                        : Water Depth to Mean Sea Level
WST                .         0                             : Def_Rwt
Water_depth        .M        953                           : 
X                  .         409660.31000000               : 
XCOORD             .         409658.99                     : Surface X
Y                  .         7557220.24000000              : 
YCOORD             .         7557234.00                    : Surface Y
group              .         AB140                         : 
~Parameter Information Block
#_______________________________________________________________________________
#
#PARAMETER_NAME    .UNIT     VALUE                         : DESCRIPTION
#_______________________________________________________________________________
SET                .         BEST_SET                      : 
TLFamily_CALI      .         Caliper                       : 
TLFamily_DENS      .         Bulk Density                  : 
TLFamily_DT        .         Compressional Slowness        : 
TLFamily_Eletrofacies_TGS .         Lithology                     : 
TLFamily_GR        .         Gamma Ray                     : 
TLFamily_HDRA      .         Bulk Density Correction       : 
TLFamily_MD        .         Measured Depth                : 
TLFamily_NEUT      .         Neutron Porosity              : 
TLFamily_PAY_NET_FLAG .         Net Pay Flag                  : 
TLFamily_PERM_WR_MC_MEAN .         Permeability                  : 
TLFamily_PHIE_F    .         Effective Porosity            : 
TLFamily_PHIT_F    .         Total Porosity                : 
TLFamily_RES_D     .         Resistivity - Deep            : 
TLFamily_RES_NET_FLAG .         Net Reservoir Flag            : 
TLFamily_RES_S     .         Resistivity - Spherically Focused: 
TLFamily_RHOV      .         Acoustic Impedance            : 
TLFamily_ROCK_NET_FLAG .         Net Rock Flag                 : 
TLFamily_SWE_SIM   .         Effective Water Saturation    : 
TLFamily_VP        .         Compressional Velocity        : 
TLFamily_VSH_FINAL .         Shale Volume Fraction         : 
~Curve Information
#_______________________________________________________________________________
#
#LOGNAME           .UNIT     LOG_ID                        : DESCRIPTION
#_______________________________________________________________________________
DEPTH              .M                                      : Measured Depth 
CALI               .in                                     : CALIPER 
DENS               .g/cm3                                  : BULK DENSITY 
DT                 .us/ft                                  : DELTA-T (ALSO CALLED SLOWNESS OR INTERVAL TRANSIT TIME) 
Eletrofacies_TGS   .unitless                               : Description 
GR                 .gAPI                                   : GAMMA RAY 
HDRA               .g/cm3                                  : BULK DENSITIY CORRECTION 
NEUT               .frac                                   : THERMAL NEUTRON POROSITY (ORIGINAL RATIO METHOD) IN SELECTED LITHOLOGY 
PAY_NET_FLAG       .unitless                               : unitless 
PERM_WR_MC_MEAN    .mD                                     : Permeability (Wyllie-Rose) 
PHIE_F             .m3/m3                                  :  
PHIT_F             .m3/m3                                  :  
RES_D              .ohm.m                                  : INDUCTION DEEP RESISTIVITY 
RES_NET_FLAG       .unitless                               : unitless 
RES_S              .ohm.m                                  : SFL RESISTIVITY UNAVERAGED 
RHOV               .g.m/cm3.s                              : Impedance from Geophy 
ROCK_NET_FLAG      .unitless                               : unitless 
SWE_SIM            .m3/m3                                  :  
VP                 .m/s                                    : Compressional velocity 
VSH_FINAL          .m3/m3                                  : Final computation of Shale volume fraction 
~Ascii
# ...
2785.3052  12.865     2.5321     84.3391    -9999      43.6681    0.0449     0.214556   0          -9999      0          0.04243747 1.6727     0          1.9688     9150.964   0          1          3613.982   1         
2785.4576  12.8801    2.5404     83.9492    -9999      44.4776    0.0487     0.207316   0          -9999      0          0.03724993 1.7212     0          1.9364     9223.601   0          1          3630.767   1         
2785.61    12.8722    2.5364     83.5698    -9999      43.6245    0.0348     0.207522   0          -9999      0          0.03974989 1.7608     0          1.9862     9250.887   0          1          3647.25    1         
2785.7624  12.8082    2.5276     83.1263    -9999      41.4992    0.014      0.222822   0          -9999      0          0.04524991 1.7813     0          2.1248     9267.976   0          1          3666.71    1         
2785.9148  12.7721    2.5239     82.9074    -9999      40.2696    0.0061     0.237675   0          -9999      0          0.04756242 1.8016     0          2.2227     9278.842   0          1          3676.391   1         
2786.0672  12.7671    2.5219     82.9703    -9999      39.9991    0.0062     0.242665   0          -9999      0          0.04881248 1.833      0          2.2479     9264.461   0          1          3673.604   1         
2786.2196  12.7886    2.5195     83.2756    -9999      40.6083    0.0106     0.234741   0          -9999      0          0.05031243 1.8794     0          2.1959     9221.713   0          1          3660.136   1         
2786.372   12.8009    2.513      83.4173    -9999      41.4388    0.0112     0.223668   0          -9999      0          0.05437494 1.93       0          2.1329     9182.297   0          1          3653.918   1         
2786.5244  12.7918    2.5064     83.406     -9999      41.8472    0.0093     0.222376   0          -9999      0          0.05849988 1.9577     0          2.1376     9159.422   0          1          3654.414   1         
2786.6768  12.7753    2.5012     83.1994    -9999      41.5304    0.0059     0.220674   0          -9999      0          0.06174997 1.963      0          2.1705     9163.115   0          1          3663.488   1         
2786.8292  12.7522    2.4989     82.7782    -9999      40.4438    0.0019     0.216458   0          -9999      0          0.06318749 1.9491     0          2.2137     9201.272   0          1          3682.129   1         
2786.9816  12.7122    2.503      82.1204    -9999      38.7382    0.0001000  0.212796   0          -9999      0          0.06062493 1.9251     0          2.2464     9290.193   0          1          3711.624   1         
2787.134   12.6848    2.5134     81.5721    -9999      38.1299    0.0038     0.219465   0          -9999      0          0.0541249  1.8954     0          2.308      9391.5     0          1          3736.572   1         
2787.2864  12.6568    2.5242     81.2223    -9999      38.0637    0.0118     0.226265   0          -9999      0          0.04737497 1.8722     0          2.3721     9472.474   0          1          3752.664   1         
2787.4388  12.6372    2.5306     81.2627    -9999      38.5545    0.0216     0.229642   0          -9999      0          0.0433749  1.8615     0          2.3976     9491.77    0          1          3750.798   1         
2787.5912  12.6483    2.5245     82.0426    -9999      39.8106    0.0293     0.225891   0          -9999      0          0.04718751 1.8712     0          2.3121     9378.879   0          1          3715.143   1         
2787.7436  12.7251    2.5088     83.116     -9999      43.2784    0.0265     0.227845   0          -9999      0          0.05699993 1.8867     0          2.1582     9200.181   0          1          3667.164   1         
2787.896   12.7705    2.5014     83.8855    -9999      46.7397    0.0223     0.23571    0          -9999      0          0.06162495 1.9001     0          2.0529     9088.897   0          1          3633.524   1         
2788.0484  12.7767    2.5074     84.2401    -9999      48.7885    0.0226     0.246188   0          -9999      0          0.05787492 1.9046     0          2.0218     9072.349   0          1          3618.229   1         
2788.2008  12.7435    2.531      84.1095    -9999      47.9509    0.034      0.255153   0          -9999      0          0.04312501 1.8925     0          2.0832     9171.958   0          1          3623.848   1         
2788.3532  12.7641    2.544      84.0442    -9999      45.3583    0.0432     0.253843   0          -9999      0          0.035      1.878      0          2.1749     9226.231   0          1          3626.663   1         
2788.5056  12.7735    2.5371     84.0405    -9999      43.2053    0.0386     0.244749   0          -9999      0          0.0393124  1.8838     0          2.2097     9201.612   0          1          3626.823   1         
2788.658   12.7602    2.5201     83.899     -9999      41.8589    0.0283     0.232215   0          -9999      0          0.04993737 1.9093     0          2.2065     9155.371   0          1          3632.94    1         
2788.8104  12.7175    2.5021     83.4366    -9999      41.533     0.0198     0.220259   0          -9999      0          0.06118745 1.9521     0          2.1894     9140.354   0          1          3653.073   1         
2788.9628  12.6692    2.5009     82.2877    -9999      41.4439    0.0278     0.215258   0          -9999      0          0.06193743 1.9929     0          2.2591     9263.528   0          1          3704.077   1         
2789.1152  12.6202    2.5102     80.2444    -9999      40.3617    0.0384     0.209608   0          -9999      0          0.05612493 2.0319     0          2.3875     9534.733   0          1          3798.396   1         
2789.2676  12.5623    2.5266     77.976     -9999      38.5419    0.0474     0.202996   0          -9999      0          0.04587502 2.0763     0          2.5588     9876.214   0          1          3908.895   1         
2789.42    12.501     2.5466     76.0349    -9999      36.2761    0.0517     0.195848   0          -9999      0          0.03337488 2.1294     0          2.7629     10208.52   0          1          4008.686   1         
2789.5724  12.4936    2.5594     75.7283    -9999      34.5319    0.045      0.191503   0          -9999      0          0.02537489 2.1925     0          2.985      10301.37   0          1          4024.915   1         
2789.7248  12.5177    2.5645     76.3447    -9999      33.6134    0.0348     0.185724   0          -9999      0          0.02218738 2.2581     0          3.0561     10238.56   0          1          3992.418   1         
2789.8772  12.5577    2.5684     77.3731    -9999      33.9411    0.0306     0.181646   0          -9999      0          0.01975    2.3035     0          2.9349     10117.83   0          1          3939.354   1         
2790.0296  12.6065    2.5707     78.6189    -9999      35.4124    0.0321     0.181858   0          -9999      0          0.01831249 2.3162     0          2.668      9966.425   0          1          3876.93    1         
2790.182   12.6568    2.5636     79.9346    -9999      37.3026    0.0292     0.191769   0          -9999      0          0.0227499  2.2778     0          2.4436     9775.308   0          1          3813.117   1         
2790.3344  12.6906    2.5464     81.0147    -9999      38.3633    0.0157     0.204821   0          -9999      0          0.0334999  2.2156     0          2.332      9580.27    0          1          3762.28    1         
2790.4868  12.7071    2.5357     81.8061    -9999      39.5274    0.0076     0.212654   0          -9999      0          0.04018739 2.144      0          2.2657     9447.724   0          1          3725.884   1         
2790.6392  12.7076    2.5356     82.2965    -9999      40.9321    0.0082     0.213555   0          -9999      0          0.04024998 2.0708     0          2.2341     9391.053   0          1          3703.681   1         
2790.7916  12.6959    2.5495     82.4791    -9999      42.5543    0.0195     0.206798   0          -9999      0          0.03156245 2.0067     0          2.2371     9421.63    0          1          3695.481   1         
