~Version
 VERS              .         2.0                           : CWLS LOG ASCII STANDARD - VERSION 2.0
 WRAP              .         NO                            : ONE LINE PER DEPTH STEP
 DLM               .         SPACE                         : DELIMITING CHARACTER(SPACE TAB OR COMMA)
~Well Information
#_______________________________________________________________________________
#
#PARAMETER_NAME    .UNIT     VALUE                         : DESCRIPTION
#_______________________________________________________________________________
STRT               .M        953                           : First reference value
STOP               .M        3080.3516                     : Last reference value
STEP               .M        0.1524                        : Step increment
NULL               .         -9999                         : Missing value
COMP               .         PETROLEO BRASILEIRO S/A       : Company
WELL               .         WELL1                         : Well name
FLD                .                                       : Field
LOC                .                                       : Location
PROV               .                                       : Province
SRVC               .         SCH                           : Service Company
DATE               .         04/09/2021                    : Date
UWI                .         7.43E+11                      : Unique Well ID
API                .         742810147700                  : API Code
COORDIN            .                                       : Grid System
COUNT              .         BRASIL                        : Country
CRS_Data           .         <?xml version="1.0" encoding="utf-8"?><!--INFO_ This file accompanies a data file and contains the spatial context.--><!--INFO_ It was made by serializing an Ocean spatial companion information record.--><!--INFO_ The coordinate reference system (CRS) is verbosely defined as ESRI well-known-text (WKT).--><SpatialCompanion version="1.0"><ILateBoundCoordinateReferenceSystem name="SIRGAS_2000_UTM_Zone_24S" crsType="Projected" engine="ESRI" engineVersion="PE_10_7_1"><AuthorityCode>EPSG,31984</AuthorityCode><WKT>PROJCS["SIRGAS_2000_UTM_Zone_24S",GEOGCS["GCS_SIRGAS_2000",DATUM["D_SIRGAS_2000",SPHEROID["GRS_1980",6378137.0,298.257222101]],PRIMEM["Greenwich",0.0],UNIT["Degree",0.0174532925199433]],PROJECTION["Transverse_Mercator"],PARAMETER["False_Easting",500000.0],PARAMETER["False_Northing",10000000.0],PARAMETER["Central_Meridian",-39.0],PARAMETER["Scale_Factor",0.9996],PARAMETER["Latitude_Of_Origin",0.0],UNIT["Meter",1.0],AUTHORITY["EPSG",31984]]</WKT></ILateBoundCoordinateReferenceSystem><Info history="" /></SpatialCompanion>: 
EDF                .M        13.00                         : Elevation Derrick Floor
EREF               .         13                            : 
DREF               .         MR                            : 
GDAT               .         SIRGAS2000                    : Geodetic Datum
HZCS               .         SIRGAS_2000_UTM_Zone_24S      : ESRI,PE_10_7_1- <?xml version="1.0" encoding="utf-16"?><ILateBoundCoordinateReferenceSystem name="SIRGAS_2000_UTM_Zone_24S"><AuthorityCode>EPSG,31984</AuthorityCode></ILateBoundCoordinateReferenceSystem>
Horizontal_coordinate_system_authority .         EPSG                          : 
Horizontal_coordinate_system_code .         31984                         : 
LAT                .         -22.087448                    : Latitude
LMF                .         MR                            : Log Measure From
LATI               .dega     -22.08757333                  : Latitude
LONG               .dega     -39.87572194                  : Longitude
MC                 .         39 W                          : Meridiano Central
MDEC               .         0                             : Magnetic Declination
ORIG               .         SIGEO EXPORTACAO PERFIL       : Origem dos dados
ORIGINALWELLNAME   .         1RJS 0342  RJ                 : 
OPER               .         Petrobras                     : 
RWS                .         0                             : Def_Rw
STATE              .         RIO DE JANEIRO                : State
STAT               .         RIO DE JANEIRO                : State
Total_Depth        .         3087                          : 
TD                 .         3087                          : 
UTMZ               .         24                            : UTM Zone
WDMS               .M        953.00                        : Water Depth to Mean Sea Level
WST                .         0                             : Def_Rwt
Water_depth        .M        953                           : 
X                  .         409660.31000000               : 
XCOORD             .         409658.99                     : Surface X
Y                  .         7557220.24000000              : 
YCOORD             .         7557234.00                    : Surface Y
group              .         AB140                         : 
~Parameter Information Block
#_______________________________________________________________________________
#
#PARAMETER_NAME    .UNIT     VALUE                         : DESCRIPTION
#_______________________________________________________________________________
SET                .         BEST_SET                      : 
TLFamily_CALI      .         Caliper                       : 
TLFamily_DENS      .         Bulk Density                  : 
TLFamily_DT        .         Compressional Slowness        : 
TLFamily_Eletrofacies_TGS .         Lithology                     : 
TLFamily_GR        .         Gamma Ray                     : 
TLFamily_HDRA      .         Bulk Density Correction       : 
TLFamily_MD        .         Measured Depth                : 
TLFamily_NEUT      .         Neutron Porosity              : 
TLFamily_PAY_NET_FLAG .         Net Pay Flag                  : 
TLFamily_PERM_WR_MC_MEAN .         Permeability                  : 
TLFamily_PHIE_F    .         Effective Porosity            : 
TLFamily_PHIT_F    .         Total Porosity                : 
TLFamily_RES_D     .         Resistivity - Deep            : 
TLFamily_RES_NET_FLAG .         Net Reservoir Flag            : 
TLFamily_RES_S     .         Resistivity - Spherically Focused: 
TLFamily_RHOV      .         Acoustic Impedance            : 
TLFamily_ROCK_NET_FLAG .         Net Rock Flag                 : 
TLFamily_SWE_SIM   .         Effective Water Saturation    : 
TLFamily_VP        .         Compressional Velocity        : 
TLFamily_VSH_FINAL .         Shale Volume Fraction         : 
~Curve Information
#_______________________________________________________________________________
#
#LOGNAME           .UNIT     LOG_ID                        : DESCRIPTION
#_______________________________________________________________________________
DEPTH              .M                                      : Measured Depth 
CALI               .in                                     : CALIPER 
DENS               .g/cm3                                  : BULK DENSITY 
DT                 .us/ft                                  : DELTA-T (ALSO CALLED SLOWNESS OR INTERVAL TRANSIT TIME) 
Eletrofacies_TGS   .unitless                               : Description 
GR                 .gAPI                                   : GAMMA RAY 
HDRA               .g/cm3                                  : BULK DENSITIY CORRECTION 
NEUT               .frac                                   : THERMAL NEUTRON POROSITY (ORIGINAL RATIO METHOD) IN SELECTED LITHOLOGY 
PAY_NET_FLAG       .unitless                               : unitless 
PERM_WR_MC_MEAN    .mD                                     : Permeability (Wyllie-Rose) 
PHIE_F             .m3/m3                                  :  
PHIT_F             .m3/m3                                  :  
RES_D              .ohm.m                                  : INDUCTION DEEP RESISTIVITY 
RES_NET_FLAG       .unitless                               : unitless 
RES_S              .ohm.m                                  : SFL RESISTIVITY UNAVERAGED 
RHOV               .g.m/cm3.s                              : Impedance from Geophy 
ROCK_NET_FLAG      .unitless                               : unitless 
SWE_SIM            .m3/m3                                  :  
VP                 .m/s                                    : Compressional velocity 
VSH_FINAL          .m3/m3                                  : Final computation of Shale volume fraction 
~Ascii
# ...
2492.0876  13.0786    2.2385     106.6809   1          73.7406    0.0691     0.389857   0          -9999      0          0.2259374  1.3683     0          1.5948     6395.661   0          1          2857.119   1         
2492.24    13.0839    2.206      106.4574   1          72.1535    0.072      0.407857   0          -9999      0          0.2462499  1.3855     0          1.5754     6316.036   0          1          2863.117   1         
2492.3924  13.1118    2.1844     106.0674   1          71.2099    0.0715     0.419466   0          -9999      0          0.2597499  1.4119     0          1.5499     6277.189   0          1          2873.645   1         
2492.5448  13.4742    2.1976     105.3815   1          73.1705    0.0651     0.401638   0          -9999      0          0.2515     1.4419     0          1.5525     6356.224   0          1          2892.348   1         
2492.6972  13.5547    2.2354     104.0629   1          74.7372    0.0451     0.368149   0          -9999      0          0.227875   1.4688     0          1.5944     6547.481   0          1          2928.998   1         
2492.8496  13.3504    2.2842     102.2528   4          75.1413    0.0217     0.331262   0          -9999      0          0.197375   1.5074     0          1.6933     6808.852   0          1          2980.847   0.964951  
2493.002   12.9142    2.3289     100.1564   4          73.7833    0.0071     0.304405   0          -9999      0          0.1694374  1.5748     0          1.8666     7087.402   0          1          3043.24    0.9727389 
2493.1544  12.8052    2.3613     98.2603    4          73.2177    0.0015     0.299713   0          -9999      0          0.1491875  1.6803     0          2.0673     7324.67    0          1          3101.965   1         
2493.3068  12.7666    2.3877     96.547     4          72.9555    -0.0011    0.295401   0          -9999      0          0.1326874  1.7969     0          2.2109     7537.997   0          1          3157.012   1         
2493.4592  12.7608    2.4087     95.1413    4          72.3081    -0.0017    0.287779   0          -9999      0          0.1195625  1.9089     0          2.3051     7716.646   0          1          3203.656   1         
2493.6116  12.7589    2.4241     94.1569    4          70.8413    -0.0009    0.275254   0          -9999      0          0.1099375  1.9997     0          2.358      7847.175   0          1          3237.15    1         
2493.764   12.7628    2.4247     93.8991    4          69.4215    0.0021     0.270714   0          -9999      0          0.1095624  2.0149     0          2.3856     7870.667   0          1          3246.038   1         
2493.9164  12.7648    2.4131     94.2759    4          68.7475    0.0059     0.274034   0          -9999      0          0.1168124  1.9883     0          2.373      7801.706   0          1          3233.064   1         
2494.0688  12.7691    2.3986     95.2133    4          69.0909    0.0064     0.27915    0          -9999      0          0.1258749  1.9371     0          2.3075     7678.479   0          1          3201.233   1         
2494.2212  12.7818    2.3831     96.7083    4          70.6826    0.003      0.284257   0          -9999      0          0.1355624  1.8744     0          2.1833     7510.926   0          1          3151.746   1         
2494.3736  12.8253    2.353      98.9259    4          74.0878    0.0021     0.294554   0          -9999      0          0.154375   1.827      0          2.0023     7249.814   0          1          3081.094   1         
2494.526   12.8614    2.2894     100.8589   4          78.1012    0.0271     0.327291   0          -9999      0          0.1941249  1.8284     0          1.834      6918.667   0          1          3022.044   0.959755  
2494.6784  12.8463    2.2354     101.7993   4          81.6105    0.0511     0.350817   0          -9999      0          0.227875   1.8475     0          1.7202     6693.07    0          1          2994.126   0.886068  
2494.8308  12.7883    2.2163     101.4111   4          83.7487    0.0584     0.351652   0          -9999      0.01311088 0.2398124  1.872      0          1.6925     6661.285   0          0.661789   3005.588   0.8060503 
2494.9832  12.7476    2.274      99.2591    4          82.8094    0.0228     0.31504    0          -9999      0          0.20375    1.8914     0          1.813      6982.888   0          1          3070.751   0.8020896 
2495.1356  12.7379    2.344      96.6186    4          78.8067    -0.0069    0.289067   0          -9999      0          0.1599999  1.9043     0          2.0388     7394.552   0          1          3154.672   0.9302129 
2495.288   12.735     2.3915     94.1451    4          74.7878    -0.0185    0.274335   0          -9999      0          0.1303125  1.9217     0          2.2813     7742.614   0          1          3237.555   1         
2495.4404  12.7344    2.4136     92.2767    4          71.8478    -0.015     0.269624   0          -9999      0          0.1165     1.9544     0          2.481      7972.383   0          1          3303.109   1         
2495.5928  12.7344    2.4142     91.6338    4          71.1632    -0.0059    0.272512   0          -9999      0          0.1161249  2.0197     0          2.554      8030.314   0          1          3326.284   1         
2495.7452  12.7344    2.411      92.4978    4          71.4314    -0.001     0.274061   0          -9999      0          0.1181249  2.0664     0          2.4998     7944.76    0          1          3295.213   1         
2495.8976  12.7362    2.4077     93.7033    4          71.6508    0.0027     0.275912   0          -9999      0          0.1201874  2.0907     0          2.3978     7831.816   0          1          3252.82    1         
2496.05    12.7389    2.4043     94.9444    4          71.8326    0.0051     0.279163   0          -9999      0          0.1223125  2.0852     0          2.2752     7718.524   0          1          3210.3     1         
2496.2024  12.7411    2.4006     95.9453    4          72.0651    0.0054     0.28481    0          -9999      0          0.124625   2.043      0          2.1588     7626.25    0          1          3176.81    1         
2496.3548  12.7372    2.3969     96.5525    4          73.1814    0.0026     0.285234   0          -9999      0          0.1269375  1.9665     0          2.0892     7566.61    0          1          3156.832   1         
2496.5072  12.7351    2.3959     97.1514    4          74.9085    -0.0002    0.286482   0          -9999      0          0.1275624  1.8997     0          2.0414     7516.828   0          1          3137.371   1         
2496.6596  12.7376    2.394      97.8565    4          76.3584    -0.0014    0.290373   0          -9999      0          0.1287499  1.8463     0          2.0035     7456.748   0          1          3114.765   1         
2496.812   12.7463    2.3881     98.7294    4          76.9267    0.0002     0.297461   0          -9999      0          0.1324375  1.808      0          1.9669     7372.605   0          1          3087.226   1         
2496.9644  12.7589    2.3781     99.539     4          77.0934    0.0018     0.299522   0          -9999      0          0.1386875  1.7751     0          1.9331     7282.019   0          1          3062.116   1         
2497.1168  12.764     2.3758     100.2327   1          78.41      0.0018     0.301686   0          -9999      0          0.140125   1.7462     0          1.9015     7224.626   0          1          3040.924   1         
2497.2692  12.7682    2.381      100.7979   1          79.5215    0.0023     0.304919   0          -9999      0          0.1368749  1.7204     0          1.8767     7199.841   0          1          3023.873   1         
2497.4216  12.7745    2.3909     101.2305   1          79.7162    0.0044     0.309843   0          -9999      0          0.1306875  1.6954     0          1.8607     7198.881   0          1          3010.95    1         
2497.574   12.7842    2.3915     101.54     1          78.4601    0.0102     0.317433   0          -9999      0          0.1303125  1.6612     0          1.8521     7178.74    0          1          3001.773   1         
