~Version
 VERS              .         2.0                           : CWLS LOG ASCII STANDARD - VERSION 2.0
 WRAP              .         NO                            : ONE LINE PER DEPTH STEP
 DLM               .         SPACE                         : DELIMITING CHARACTER(SPACE TAB OR COMMA)
~Well Information
#_______________________________________________________________________________
#
#PARAMETER_NAME    .UNIT     VALUE                         : DESCRIPTION
#_______________________________________________________________________________
STRT               .M        953                           : First reference value
STOP               .M        3080.3516                     : Last reference value
STEP               .M        0.1524                        : Step increment
NULL               .         -9999                         : Missing value
COMP               .         PETROLEO BRASILEIRO S/A       : Company
WELL               .         WELL1                         : Well name
FLD                .                                       : Field
LOC                .                                       : Location
PROV               .                                       : Province
SRVC               .         SCH                           : Service Company
DATE               .         04/09/2021                    : Date
UWI                .         7.43E+11                      : Unique Well ID
API                .         742810147700                  : API Code
COORDIN            .                                       : Grid System
COUNT              .         BRASIL                        : Country
CRS_Data           .         <?xml version="1.0" encoding="utf-8"?><!--INFO_ This file accompanies a data file and contains the spatial context.--><!--INFO_ It was made by serializing an Ocean spatial companion information record.--><!--INFO_ The coordinate reference system (CRS) is verbosely defined as ESRI well-known-text (WKT).--><SpatialCompanion version="1.0"><ILateBoundCoordinateReferenceSystem name="SIRGAS_2000_UTM_Zone_24S" crsType="Projected" engine="ESRI" engineVersion="PE_10_7_1"><AuthorityCode>EPSG,31984</AuthorityCode><WKT>PROJCS["SIRGAS_2000_UTM_Zone_24S",GEOGCS["GCS_SIRGAS_2000",DATUM["D_SIRGAS_2000",SPHEROID["GRS_1980",6378137.0,298.257222101]],PRIMEM["Greenwich",0.0],UNIT["Degree",0.0174532925199433]],PROJECTION["Transverse_Mercator"],PARAMETER["False_Easting",500000.0],PARAMETER["False_Northing",10000000.0],PARAMETER["Central_Meridian",-39.0],PARAMETER["Scale_Factor",0.9996],PARAMETER["Latitude_Of_Origin",0.0],UNIT["Meter",1.0],AUTHORITY["EPSG",31984]]</WKT></ILateBoundCoordinateReferenceSystem><Info history="" /></SpatialCompanion>: 
EDF                .M        13.00                         : Elevation Derrick Floor
EREF               .         13                            : 
DREF               .         MR                            : 
GDAT               .         SIRGAS2000                    : Geodetic Datum
HZCS               .         SIRGAS_2000_UTM_Zone_24S      : ESRI,PE_10_7_1- <?xml version="1.0" encoding="utf-16"?><ILateBoundCoordinateReferenceSystem name="SIRGAS_2000_UTM_Zone_24S"><AuthorityCode>EPSG,31984</AuthorityCode></ILateBoundCoordinateReferenceSystem>
Horizontal_coordinate_system_authority .         EPSG                          : 
Horizontal_coordinate_system_code .         31984                         : 
LAT                .         -22.087448                    : Latitude
LMF                .         MR                            : Log Measure From
LATI               .dega     -22.08757333                  : Latitude
LONG               .dega     -39.87572194                  : Longitude
MC                 .         39 W                          : Meridiano Central
MDEC               .         0                             : Magnetic Declination
ORIG               .         SIGEO EXPORTACAO PERFIL       : Origem dos dados
ORIGINALWELLNAME   .         1RJS 0342  RJ                 : 
OPER               .         Petrobras                     : 
RWS                .         0                             : Def_Rw
STATE              .         RIO DE JANEIRO                : State
STAT               .         RIO DE JANEIRO                : State
Total_Depth        .         3087                          : 
TD                 .         3087                          : 
UTMZ               .         24                            : UTM Zone
WDMS               .M        953.00                        : Water Depth to Mean Sea Level
WST                .         0                             : Def_Rwt
Water_depth        .M        953                           : 
X                  .         409660.31000000               : 
XCOORD             .         409658.99                     : Surface X
Y                  .         7557220.24000000              : 
YCOORD             .         7557234.00                    : Surface Y
group              .         AB140                         : 
~Parameter Information Block
#_______________________________________________________________________________
#
#PARAMETER_NAME    .UNIT     VALUE                         : DESCRIPTION
#_______________________________________________________________________________
SET                .         BEST_SET                      : 
TLFamily_CALI      .         Caliper                       : 
TLFamily_DENS      .         Bulk Density                  : 
TLFamily_DT        .         Compressional Slowness        : 
TLFamily_Eletrofacies_TGS .         Lithology                     : 
TLFamily_GR        .         Gamma Ray                     : 
TLFamily_HDRA      .         Bulk Density Correction       : 
TLFamily_MD        .         Measured Depth                : 
TLFamily_NEUT      .         Neutron Porosity              : 
TLFamily_PAY_NET_FLAG .         Net Pay Flag                  : 
TLFamily_PERM_WR_MC_MEAN .         Permeability                  : 
TLFamily_PHIE_F    .         Effective Porosity            : 
TLFamily_PHIT_F    .         Total Porosity                : 
TLFamily_RES_D     .         Resistivity - Deep            : 
TLFamily_RES_NET_FLAG .         Net Reservoir Flag            : 
TLFamily_RES_S     .         Resistivity - Spherically Focused: 
TLFamily_RHOV      .         Acoustic Impedance            : 
TLFamily_ROCK_NET_FLAG .         Net Rock Flag                 : 
TLFamily_SWE_SIM   .         Effective Water Saturation    : 
TLFamily_VP        .         Compressional Velocity        : 
TLFamily_VSH_FINAL .         Shale Volume Fraction         : 
~Curve Information
#_______________________________________________________________________________
#
#LOGNAME           .UNIT     LOG_ID                        : DESCRIPTION
#_______________________________________________________________________________
DEPTH              .M                                      : Measured Depth 
CALI               .in                                     : CALIPER 
DENS               .g/cm3                                  : BULK DENSITY 
DT                 .us/ft                                  : DELTA-T (ALSO CALLED SLOWNESS OR INTERVAL TRANSIT TIME) 
Eletrofacies_TGS   .unitless                               : Description 
GR                 .gAPI                                   : GAMMA RAY 
HDRA               .g/cm3                                  : BULK DENSITIY CORRECTION 
NEUT               .frac                                   : THERMAL NEUTRON POROSITY (ORIGINAL RATIO METHOD) IN SELECTED LITHOLOGY 
PAY_NET_FLAG       .unitless                               : unitless 
PERM_WR_MC_MEAN    .mD                                     : Permeability (Wyllie-Rose) 
PHIE_F             .m3/m3                                  :  
PHIT_F             .m3/m3                                  :  
RES_D              .ohm.m                                  : INDUCTION DEEP RESISTIVITY 
RES_NET_FLAG       .unitless                               : unitless 
RES_S              .ohm.m                                  : SFL RESISTIVITY UNAVERAGED 
RHOV               .g.m/cm3.s                              : Impedance from Geophy 
ROCK_NET_FLAG      .unitless                               : unitless 
SWE_SIM            .m3/m3                                  :  
VP                 .m/s                                    : Compressional velocity 
VSH_FINAL          .m3/m3                                  : Final computation of Shale volume fraction 
~Ascii
# ...
2554.1144  12.9627    2.4113     97.4415    1          46.9407    0.0489     0.275106   0          -9999      0          0.1179375  1.4941     0          1.8997     7542.62    0          1          3128.031   1         
2554.2668  12.9001    2.4367     96.0002    4          43.9459    0.0508     0.260198   0          -9999      0          0.1020624  1.6037     0          1.9828     7736.507   0          1          3174.993   1         
2554.4192  12.8384    2.4663     95.5481    4          41.9866    0.0661     0.246088   0          -9999      0          0.08356244 1.6838     0          2.0135     7867.537   0          1          3190.016   1         
2554.5716  12.8722    2.4881     95.5777    4          41.9092    0.099      0.232396   0          -9999      0          0.06993742 1.7215     0          1.9905     7934.622   0          1          3189.029   1         
2554.724   12.9348    2.4833     95.5954    4          43.1108    0.1148     0.236924   0          -9999      0          0.07293747 1.7166     0          1.9368     7917.848   0          1          3188.438   1         
2554.8764  13.056     2.4699     95.7968    4          43.89      0.1161     0.253449   0          -9999      0          0.08131251 1.6847     0          1.8674     7858.566   0          1          3181.735   1         
2555.0288  13.2087    2.4552     96.3016    4          43.7615    0.109      0.277563   0          -9999      0          0.09049997 1.6337     0          1.7919     7770.847   0          1          3165.056   1         
2555.1812  13.2699    2.4451     97.3136    4          42.8369    0.1105     0.30078    0          -9999      0          0.0968124  1.5739     0          1.7269     7658.4     0          1          3132.142   1         
2555.3336  13.2053    2.4089     98.7158    4          43.913     0.1088     0.315779   0          -9999      0          0.1194374  1.5051     0          1.658      7437.844   0          1          3087.652   1         
2555.486   13.138     2.3627     100.4818   4          46.3332    0.0991     0.321502   0          -9999      0          0.1483125  1.43       0          1.5886     7166.979   0          1          3033.385   1         
2555.6384  13.0629    2.3223     102.4161   4          49.1103    0.0866     0.319387   0          -9999      0          0.1735625  1.3554     0          1.518      6911.384   0          1          2976.094   1         
2555.7908  12.9273    2.3135     104.1336   4          50.4782    0.0838     0.312689   0          -9999      0          0.1790625  1.2944     0          1.4434     6771.636   0          1          2927.009   0.9630733 
2555.9432  12.8931    2.3334     105.1233   4          50.8447    0.0992     0.31695    0          -9999      0          0.1666249  1.247      0          1.3586     6765.583   0          1          2899.452   1         
2556.0956  12.9099    2.3444     105.4886   1          51.8324    0.1028     0.320492   0          -9999      0          0.15975    1.2206     0          1.298      6773.937   0          1          2889.412   1         
2556.248   12.9488    2.3478     105.0853   1          53.0644    0.0954     0.322635   0          -9999      0          0.1576249  1.2126     0          1.2821     6809.796   0          1          2900.501   1         
2556.4004  12.9778    2.3487     103.7503   1          53.9217    0.0814     0.323633   0          -9999      0          0.1570624  1.2183     0          1.3318     6900.065   0          1          2937.823   1         
2556.5528  13.0048    2.3519     102.0062   1          52.9547    0.0739     0.325591   0          -9999      0          0.1550624  1.2154     0          1.432      7027.603   0          1          2988.053   1         
2556.7052  13.0596    2.3573     100.8144   1          52.3791    0.067      0.321092   0          -9999      0          0.1516874  1.2203     0          1.5323     7127.008   0          1          3023.378   1         
2556.8576  13.1241    2.3655     100.3862   1          52.8658    0.0601     0.313677   0          -9999      0          0.1465625  1.2181     0          1.6011     7182.306   0          1          3036.274   1         
2557.01    13.1893    2.3762     100.9179   1          54.9057    0.0537     0.307247   0          -9999      0          0.139875   1.1977     0          1.6123     7176.782   0          1          3020.277   1         
2557.1624  13.3379    2.3795     103.0343   1          58.1353    0.0664     0.315046   0          -9999      0          0.1378125  1.1649     0          1.5457     7039.127   0          1          2958.238   1         
2557.3148  13.4811    2.3569     105.6666   1          62.2628    0.0766     0.336603   0          -9999      0          0.1519375  1.1387     0          1.421      6798.583   0          1          2884.544   1         
2557.4672  13.5879    2.3189     108.2592   1          65.8974    0.0758     0.365045   0          -9999      0          0.1756874  1.122      0          1.2768     6528.782   0          1          2815.465   1         
2557.6196  13.6515    2.2762     110.2629   1          67.7384    0.0615     0.392788   0          -9999      0          0.2023749  1.1154     0          1.147      6292.105   0          1          2764.302   1         
2557.772   13.7222    2.2616     110.0545   1          64.1665    0.0462     0.39508    0          -9999      0          0.2114999  1.1149     0          1.1204     6263.584   0          1          2769.537   1         
2557.9244  13.7493    2.2705     107.9407   1          59.2776    0.0431     0.391416   0          -9999      0          0.2059375  1.1112     0          1.1933     6411.375   0          1          2823.773   1         
2558.0768  13.5692    2.2944     105.3302   1          55.824     0.0447     0.389607   0          -9999      0          0.191      1.1078     0          1.3272     6639.436   0          1          2893.757   1         
2558.2292  13.2541    2.3267     103.0378   4          54.1129    0.051      0.384344   0          -9999      0          0.1708125  1.1126     0          1.4886     6882.699   0          1          2958.137   1         
2558.3816  13.2018    2.3544     102.3688   4          52.455     0.0706     0.350441   0          -9999      0          0.1535     1.148      0          1.6043     7010.155   0          1          2977.47    1         
2558.534   13.4379    2.3548     102.2628   4          49.6336    0.0934     0.304512   0          -9999      0          0.15325    1.218      0          1.6054     7018.613   0          1          2980.556   1         
2558.6864  13.5149    2.3503     101.7806   4          47.2239    0.0948     0.271302   0          -9999      0          0.1560624  1.3023     0          1.5532     7038.389   0          1          2994.677   0.830555  
2558.8388  13.3915    2.3545     100.8101   4          45.6475    0.0745     0.254755   0          -9999      0          0.1534374  1.3851     0          1.5057     7118.847   0          1          3023.507   0.7302163 
2558.9912  13.1313    2.3876     99.4349    4          45.2248    0.0397     0.254625   0          -9999      0          0.13275    1.4428     0          1.5576     7318.763   0          1          3065.322   0.8783779 
2559.1436  12.9633    2.4192     98.1856    4          45.2384    0.028      0.256099   0          -9999      0          0.113      1.4556     0          1.7396     7509.982   0          1          3104.325   1         
2559.296   12.947     2.4393     97.0563    4          45.6906    0.0308     0.258158   0          -9999      0          0.1004374  1.4699     0          1.914      7660.489   0          1          3140.446   1         
2559.4484  13.023     2.4466     96.0686    4          46.1951    0.0414     0.26148    0          -9999      0          0.09587497 1.495      0          2.0166     7762.408   0          1          3172.733   1         
2559.6008  13.1103    2.4405     95.2457    4          46.2784    0.052      0.26692    0          -9999      0          0.09968743 1.538      0          1.9828     7809.953   0          1          3200.145   1         
