~Version
 VERS              .         2.0                           : CWLS LOG ASCII STANDARD - VERSION 2.0
 WRAP              .         NO                            : ONE LINE PER DEPTH STEP
 DLM               .         SPACE                         : DELIMITING CHARACTER(SPACE TAB OR COMMA)
~Well Information
#_______________________________________________________________________________
#
#PARAMETER_NAME    .UNIT     VALUE                         : DESCRIPTION
#_______________________________________________________________________________
STRT               .M        953                           : First reference value
STOP               .M        3080.3516                     : Last reference value
STEP               .M        0.1524                        : Step increment
NULL               .         -9999                         : Missing value
COMP               .         PETROLEO BRASILEIRO S/A       : Company
WELL               .         WELL1                         : Well name
FLD                .                                       : Field
LOC                .                                       : Location
PROV               .                                       : Province
SRVC               .         SCH                           : Service Company
DATE               .         04/09/2021                    : Date
UWI                .         7.43E+11                      : Unique Well ID
API                .         742810147700                  : API Code
COORDIN            .                                       : Grid System
COUNT              .         BRASIL                        : Country
CRS_Data           .         <?xml version="1.0" encoding="utf-8"?><!--INFO_ This file accompanies a data file and contains the spatial context.--><!--INFO_ It was made by serializing an Ocean spatial companion information record.--><!--INFO_ The coordinate reference system (CRS) is verbosely defined as ESRI well-known-text (WKT).--><SpatialCompanion version="1.0"><ILateBoundCoordinateReferenceSystem name="SIRGAS_2000_UTM_Zone_24S" crsType="Projected" engine="ESRI" engineVersion="PE_10_7_1"><AuthorityCode>EPSG,31984</AuthorityCode><WKT>PROJCS["SIRGAS_2000_UTM_Zone_24S",GEOGCS["GCS_SIRGAS_2000",DATUM["D_SIRGAS_2000",SPHEROID["GRS_1980",6378137.0,298.257222101]],PRIMEM["Greenwich",0.0],UNIT["Degree",0.0174532925199433]],PROJECTION["Transverse_Mercator"],PARAMETER["False_Easting",500000.0],PARAMETER["False_Northing",10000000.0],PARAMETER["Central_Meridian",-39.0],PARAMETER["Scale_Factor",0.9996],PARAMETER["Latitude_Of_Origin",0.0],UNIT["Meter",1.0],AUTHORITY["EPSG",31984]]</WKT></ILateBoundCoordinateReferenceSystem><Info history="" /></SpatialCompanion>: 
EDF                .M        13.00                         : Elevation Derrick Floor
EREF               .         13                            : 
DREF               .         MR                            : 
GDAT               .         SIRGAS2000                    : Geodetic Datum
HZCS               .         SIRGAS_2000_UTM_Zone_24S      : ESRI,PE_10_7_1- <?xml version="1.0" encoding="utf-16"?><ILateBoundCoordinateReferenceSystem name="SIRGAS_2000_UTM_Zone_24S"><AuthorityCode>EPSG,31984</AuthorityCode></ILateBoundCoordinateReferenceSystem>
Horizontal_coordinate_system_authority .         EPSG                          : 
Horizontal_coordinate_system_code .         31984                         : 
LAT                .         -22.087448                    : Latitude
LMF                .         MR                            : Log Measure From
LATI               .dega     -22.08757333                  : Latitude
LONG               .dega     -39.87572194                  : Longitude
MC                 .         39 W                          : Meridiano Central
MDEC               .         0                             : Magnetic Declination
ORIG               .         SIGEO EXPORTACAO PERFIL       : Origem dos dados
ORIGINALWELLNAME   .         1RJS 0342  RJ                 : 
OPER               .         Petrobras                     : 
RWS                .         0                             : Def_Rw
STATE              .         RIO DE JANEIRO                : State
STAT               .         RIO DE JANEIRO                : State
Total_Depth        .         3087                          : 
TD                 .         3087                          : 
UTMZ               .         24                            : UTM Zone
WDMS               .M        953.00                        : Water Depth to Mean Sea Level
WST                .         0                             : Def_Rwt
Water_depth        .M        953                           : 
X                  .         409660.31000000               : 
XCOORD             .         409658.99                     : Surface X
Y                  .         7557220.24000000              : 
YCOORD             .         7557234.00                    : Surface Y
group              .         AB140                         : 
~Parameter Information Block
#_______________________________________________________________________________
#
#PARAMETER_NAME    .UNIT     VALUE                         : DESCRIPTION
#_______________________________________________________________________________
SET                .         BEST_SET                      : 
TLFamily_CALI      .         Caliper                       : 
TLFamily_DENS      .         Bulk Density                  : 
TLFamily_DT        .         Compressional Slowness        : 
TLFamily_Eletrofacies_TGS .         Lithology                     : 
TLFamily_GR        .         Gamma Ray                     : 
TLFamily_HDRA      .         Bulk Density Correction       : 
TLFamily_MD        .         Measured Depth                : 
TLFamily_NEUT      .         Neutron Porosity              : 
TLFamily_PAY_NET_FLAG .         Net Pay Flag                  : 
TLFamily_PERM_WR_MC_MEAN .         Permeability                  : 
TLFamily_PHIE_F    .         Effective Porosity            : 
TLFamily_PHIT_F    .         Total Porosity                : 
TLFamily_RES_D     .         Resistivity - Deep            : 
TLFamily_RES_NET_FLAG .         Net Reservoir Flag            : 
TLFamily_RES_S     .         Resistivity - Spherically Focused: 
TLFamily_RHOV      .         Acoustic Impedance            : 
TLFamily_ROCK_NET_FLAG .         Net Rock Flag                 : 
TLFamily_SWE_SIM   .         Effective Water Saturation    : 
TLFamily_VP        .         Compressional Velocity        : 
TLFamily_VSH_FINAL .         Shale Volume Fraction         : 
~Curve Information
#_______________________________________________________________________________
#
#LOGNAME           .UNIT     LOG_ID                        : DESCRIPTION
#_______________________________________________________________________________
DEPTH              .M                                      : Measured Depth 
CALI               .in                                     : CALIPER 
DENS               .g/cm3                                  : BULK DENSITY 
DT                 .us/ft                                  : DELTA-T (ALSO CALLED SLOWNESS OR INTERVAL TRANSIT TIME) 
Eletrofacies_TGS   .unitless                               : Description 
GR                 .gAPI                                   : GAMMA RAY 
HDRA               .g/cm3                                  : BULK DENSITIY CORRECTION 
NEUT               .frac                                   : THERMAL NEUTRON POROSITY (ORIGINAL RATIO METHOD) IN SELECTED LITHOLOGY 
PAY_NET_FLAG       .unitless                               : unitless 
PERM_WR_MC_MEAN    .mD                                     : Permeability (Wyllie-Rose) 
PHIE_F             .m3/m3                                  :  
PHIT_F             .m3/m3                                  :  
RES_D              .ohm.m                                  : INDUCTION DEEP RESISTIVITY 
RES_NET_FLAG       .unitless                               : unitless 
RES_S              .ohm.m                                  : SFL RESISTIVITY UNAVERAGED 
RHOV               .g.m/cm3.s                              : Impedance from Geophy 
ROCK_NET_FLAG      .unitless                               : unitless 
SWE_SIM            .m3/m3                                  :  
VP                 .m/s                                    : Compressional velocity 
VSH_FINAL          .m3/m3                                  : Final computation of Shale volume fraction 
~Ascii
# ...
2435.6996  13.431     2.1422     114.5836   1          72.8147    0.0589     0.428067   0          -9999      0.004875077 0.286125   1.4204     0          1.465      5698.395   0          1          2660.066   1         
2435.852   13.4821    2.1531     112.7268   1          73.4712    0.0291     0.422718   0          -9999      0          0.2793125  1.4182     0          1.5033     5821.729   0          1          2703.882   1         
2436.0044  13.1742    2.2138     110.5726   1          74.3087    0.0149     0.400722   0          -9999      0          0.241375   1.3983     0          1.6457     6102.472   0          1          2756.56    1         
2436.1568  12.9644    2.2497     109.0069   1          72.5079    0.0519     0.399948   0          -9999      0          0.2189374  1.3633     0          1.8046     6290.506   0          1          2796.153   1         
2436.3092  13.1072    2.2458     108.3228   1          70.057     0.0945     0.423433   0          -9999      0          0.2213749  1.3546     0          1.7951     6319.26    0          1          2813.812   1         
2436.4616  13.4223    2.2196     108.2779   1          68.7967    0.1262     0.454489   0          -9999      0          0.23775    1.3699     0          1.6814     6248.127   0          1          2814.979   1         
2436.614   13.7466    2.1852     108.6994   1          69.6592    0.1354     0.481118   0          -9999      0          0.25925    1.4015     0          1.5216     6127.439   0          1          2804.063   1         
2436.7664  13.6921    2.1621     109.5358   1          70.0879    0.1139     0.495435   0          -9999      0          0.2736874  1.3966     0          1.4519     6016.372   0          1          2782.652   1         
2436.9188  13.735     2.1641     111.2484   1          68.2718    0.0773     0.489178   0          -9999      0          0.2724375  1.3644     0          1.4142     5929.232   0          1          2739.815   1         
2437.0712  13.6404    2.19       113.2737   1          67.1577    0.0415     0.467329   0          -9999      0          0.2562499  1.3146     0          1.3828     5892.913   0          1          2690.828   1         
2437.2236  13.3566    2.2343     115.1357   1          68.1247    0.0172     0.436877   0          -9999      0          0.2285625  1.255      0          1.3509     5914.887   0          1          2647.311   1         
2437.376   13.0815    2.2722     115.6948   1          72.03      0.0251     0.4207     0          -9999      0          0.2048749  1.2046     0          1.3351     5986.151   0          1          2634.518   1         
2437.5284  12.9494    2.2721     115.59     1          75.3154    0.0584     0.425816   0          -9999      0          0.2049375  1.2008     0          1.3199     5991.315   0          1          2636.906   1         
2437.6808  12.9799    2.2521     115.0677   1          77.1641    0.091      0.434473   0          -9999      0          0.2174375  1.2284     0          1.2891     5965.532   0          1          2648.875   1         
2437.8332  13.1343    2.2334     114.0615   1          77.063     0.109      0.43553    0          -9999      0          0.2291249  1.2702     0          1.2557     5968.187   0          1          2672.243   1         
2437.9856  13.2989    2.2608     112.2399   1          74.1579    0.092      0.410557   0          -9999      0          0.212      1.2892     0          1.2643     6139.455   0          1          2715.612   1         
2438.138   13.2065    2.3209     109.2334   1          70.3446    0.0737     0.371612   0          -9999      0          0.1744375  1.2788     0          1.3805     6476.136   0          1          2790.355   1         
2438.2904  13.1173    2.3614     106.3577   1          66.6812    0.0715     0.340456   0          -9999      0          0.149125   1.2581     0          1.5591     6767.303   0          1          2865.801   1         
2438.4428  13.0742    2.3758     104.5853   1          64.1353    0.0798     0.32749    0          -9999      0          0.140125   1.2357     0          1.7361     6923.954   0          1          2914.368   1         
2438.5952  13.095     2.3641     105.2128   1          64.046     0.0859     0.345022   0          -9999      0          0.1474375  1.221      0          1.8168     6848.765   0          1          2896.986   1         
2438.7476  13.2687    2.3515     107.1285   1          68.7021    0.0894     0.395292   0          -9999      0          0.1553124  1.2742     0          1.701      6690.444   0          1          2845.181   1         
2438.9     13.3847    2.3315     108.4231   1          72.2904    0.1039     0.441029   0          -9999      0          0.1678124  1.3597     0          1.5361     6554.334   0          1          2811.209   1         
2439.0524  13.3777    2.3185     108.3864   1          73.0414    0.1165     0.462248   0          -9999      0          0.1759374  1.4454     0          1.4224     6519.995   0          1          2812.161   1         
2439.2048  13.1937    2.3277     106.4274   1          69.6078    0.1125     0.44066    0          -9999      0          0.1701875  1.499      0          1.4581     6666.355   0          1          2863.924   1         
2439.3572  12.8627    2.3741     103.3437   1          67.2325    0.0684     0.376367   0          -9999      0          0.1411875  1.4899     0          1.725      7002.127   0          1          2949.382   1         
2439.5096  12.7331    2.4212     101.2002   1          67.4754    0.0315     0.326677   0          -9999      0          0.1117499  1.4724     0          1.982      7292.295   0          1          3011.852   1         
2439.662   12.7658    2.4558     100.5052   1          69.7821    0.0167     0.307277   0          -9999      0          0.09012491 1.4656     0          2.1064     7447.653   0          1          3032.679   1         
2439.8144  12.9308    2.4656     101.5741   1          73.5009    0.0343     0.325824   0          -9999      0          0.08399994 1.4799     0          2.0233     7398.687   0          1          3000.765   1         
2439.9668  13.1983    2.4176     104.3869   1          76.1977    0.0918     0.362108   0          -9999      0          0.114      1.4972     0          1.766      7059.166   0          1          2919.907   1         
2440.1192  13.3373    2.3545     107.1116   1          76.5865    0.1415     0.382388   0          -9999      0          0.1534374  1.4889     0          1.5815     6700.036   0          1          2845.63    1         
2440.2716  13.3928    2.3024     109.0011   1          76.0019    0.1603     0.390767   0          -9999      0          0.1859999  1.4573     0          1.4723     6438.207   0          1          2796.302   1         
2440.424   13.4028    2.2723     109.7437   1          75.1684    0.1425     0.38984    0          -9999      0          0.2048125  1.4075     0          1.4333     6311.042   0          1          2777.38    1         
2440.5764  13.4593    2.267      109.2734   1          74.969     0.1027     0.384006   0          -9999      0          0.208125   1.3607     0          1.4377     6323.42    0          1          2789.334   1         
2440.7288  13.5231    2.2693     108.2064   1          73.7542    0.0828     0.375565   0          -9999      0          0.2066875  1.3441     0          1.4521     6392.252   0          1          2816.839   1         
2440.8812  13.5068    2.2787     106.6239   1          71.9344    0.0777     0.36826    0          -9999      0          0.2008124  1.3536     0          1.4788     6513.998   0          1          2858.646   1         
2441.0336  13.3777    2.2976     104.8017   1          69.8949    0.0803     0.361606   0          -9999      0          0.1889999  1.38       0          1.5284     6682.224   0          1          2908.35    1         
2441.186   13.1029    2.3326     103.4057   1          68.3888    0.075      0.352111   0          -9999      0          0.1671249  1.4031     0          1.6265     6875.603   0          1          2947.613   1         
