~Version
 VERS              .         2.0                           : CWLS LOG ASCII STANDARD - VERSION 2.0
 WRAP              .         NO                            : ONE LINE PER DEPTH STEP
 DLM               .         SPACE                         : DELIMITING CHARACTER(SPACE TAB OR COMMA)
~Well Information
#_______________________________________________________________________________
#
#PARAMETER_NAME    .UNIT     VALUE                         : DESCRIPTION
#_______________________________________________________________________________
STRT               .M        953                           : First reference value
STOP               .M        3080.3516                     : Last reference value
STEP               .M        0.1524                        : Step increment
NULL               .         -9999                         : Missing value
COMP               .         PETROLEO BRASILEIRO S/A       : Company
WELL               .         WELL1                         : Well name
FLD                .                                       : Field
LOC                .                                       : Location
PROV               .                                       : Province
SRVC               .         SCH                           : Service Company
DATE               .         04/09/2021                    : Date
UWI                .         7.43E+11                      : Unique Well ID
API                .         742810147700                  : API Code
COORDIN            .                                       : Grid System
COUNT              .         BRASIL                        : Country
CRS_Data           .         <?xml version="1.0" encoding="utf-8"?><!--INFO_ This file accompanies a data file and contains the spatial context.--><!--INFO_ It was made by serializing an Ocean spatial companion information record.--><!--INFO_ The coordinate reference system (CRS) is verbosely defined as ESRI well-known-text (WKT).--><SpatialCompanion version="1.0"><ILateBoundCoordinateReferenceSystem name="SIRGAS_2000_UTM_Zone_24S" crsType="Projected" engine="ESRI" engineVersion="PE_10_7_1"><AuthorityCode>EPSG,31984</AuthorityCode><WKT>PROJCS["SIRGAS_2000_UTM_Zone_24S",GEOGCS["GCS_SIRGAS_2000",DATUM["D_SIRGAS_2000",SPHEROID["GRS_1980",6378137.0,298.257222101]],PRIMEM["Greenwich",0.0],UNIT["Degree",0.0174532925199433]],PROJECTION["Transverse_Mercator"],PARAMETER["False_Easting",500000.0],PARAMETER["False_Northing",10000000.0],PARAMETER["Central_Meridian",-39.0],PARAMETER["Scale_Factor",0.9996],PARAMETER["Latitude_Of_Origin",0.0],UNIT["Meter",1.0],AUTHORITY["EPSG",31984]]</WKT></ILateBoundCoordinateReferenceSystem><Info history="" /></SpatialCompanion>: 
EDF                .M        13.00                         : Elevation Derrick Floor
EREF               .         13                            : 
DREF               .         MR                            : 
GDAT               .         SIRGAS2000                    : Geodetic Datum
HZCS               .         SIRGAS_2000_UTM_Zone_24S      : ESRI,PE_10_7_1- <?xml version="1.0" encoding="utf-16"?><ILateBoundCoordinateReferenceSystem name="SIRGAS_2000_UTM_Zone_24S"><AuthorityCode>EPSG,31984</AuthorityCode></ILateBoundCoordinateReferenceSystem>
Horizontal_coordinate_system_authority .         EPSG                          : 
Horizontal_coordinate_system_code .         31984                         : 
LAT                .         -22.087448                    : Latitude
LMF                .         MR                            : Log Measure From
LATI               .dega     -22.08757333                  : Latitude
LONG               .dega     -39.87572194                  : Longitude
MC                 .         39 W                          : Meridiano Central
MDEC               .         0                             : Magnetic Declination
ORIG               .         SIGEO EXPORTACAO PERFIL       : Origem dos dados
ORIGINALWELLNAME   .         1RJS 0342  RJ                 : 
OPER               .         Petrobras                     : 
RWS                .         0                             : Def_Rw
STATE              .         RIO DE JANEIRO                : State
STAT               .         RIO DE JANEIRO                : State
Total_Depth        .         3087                          : 
TD                 .         3087                          : 
UTMZ               .         24                            : UTM Zone
WDMS               .M        953.00                        : Water Depth to Mean Sea Level
WST                .         0                             : Def_Rwt
Water_depth        .M        953                           : 
X                  .         409660.31000000               : 
XCOORD             .         409658.99                     : Surface X
Y                  .         7557220.24000000              : 
YCOORD             .         7557234.00                    : Surface Y
group              .         AB140                         : 
~Parameter Information Block
#_______________________________________________________________________________
#
#PARAMETER_NAME    .UNIT     VALUE                         : DESCRIPTION
#_______________________________________________________________________________
SET                .         BEST_SET                      : 
TLFamily_CALI      .         Caliper                       : 
TLFamily_DENS      .         Bulk Density                  : 
TLFamily_DT        .         Compressional Slowness        : 
TLFamily_Eletrofacies_TGS .         Lithology                     : 
TLFamily_GR        .         Gamma Ray                     : 
TLFamily_HDRA      .         Bulk Density Correction       : 
TLFamily_MD        .         Measured Depth                : 
TLFamily_NEUT      .         Neutron Porosity              : 
TLFamily_PAY_NET_FLAG .         Net Pay Flag                  : 
TLFamily_PERM_WR_MC_MEAN .         Permeability                  : 
TLFamily_PHIE_F    .         Effective Porosity            : 
TLFamily_PHIT_F    .         Total Porosity                : 
TLFamily_RES_D     .         Resistivity - Deep            : 
TLFamily_RES_NET_FLAG .         Net Reservoir Flag            : 
TLFamily_RES_S     .         Resistivity - Spherically Focused: 
TLFamily_RHOV      .         Acoustic Impedance            : 
TLFamily_ROCK_NET_FLAG .         Net Rock Flag                 : 
TLFamily_SWE_SIM   .         Effective Water Saturation    : 
TLFamily_VP        .         Compressional Velocity        : 
TLFamily_VSH_FINAL .         Shale Volume Fraction         : 
~Curve Information
#_______________________________________________________________________________
#
#LOGNAME           .UNIT     LOG_ID                        : DESCRIPTION
#_______________________________________________________________________________
DEPTH              .M                                      : Measured Depth 
CALI               .in                                     : CALIPER 
DENS               .g/cm3                                  : BULK DENSITY 
DT                 .us/ft                                  : DELTA-T (ALSO CALLED SLOWNESS OR INTERVAL TRANSIT TIME) 
Eletrofacies_TGS   .unitless                               : Description 
GR                 .gAPI                                   : GAMMA RAY 
HDRA               .g/cm3                                  : BULK DENSITIY CORRECTION 
NEUT               .frac                                   : THERMAL NEUTRON POROSITY (ORIGINAL RATIO METHOD) IN SELECTED LITHOLOGY 
PAY_NET_FLAG       .unitless                               : unitless 
PERM_WR_MC_MEAN    .mD                                     : Permeability (Wyllie-Rose) 
PHIE_F             .m3/m3                                  :  
PHIT_F             .m3/m3                                  :  
RES_D              .ohm.m                                  : INDUCTION DEEP RESISTIVITY 
RES_NET_FLAG       .unitless                               : unitless 
RES_S              .ohm.m                                  : SFL RESISTIVITY UNAVERAGED 
RHOV               .g.m/cm3.s                              : Impedance from Geophy 
ROCK_NET_FLAG      .unitless                               : unitless 
SWE_SIM            .m3/m3                                  :  
VP                 .m/s                                    : Compressional velocity 
VSH_FINAL          .m3/m3                                  : Final computation of Shale volume fraction 
~Ascii
# ...
2322.9236  13.6064    2.3448     103.061    1          80.4738    0.0584     0.406694   0          -9999      0          0.1595     2.1273     0          2.2458     6934.68    0          1          2957.472   1         
2323.076   13.7449    2.3369     104.8496   1          84.0246    0.0909     0.413899   0          -9999      0          0.1644375  2.0215     0          2.0789     6793.417   0          1          2907.021   1         
2323.2284  13.7246    2.335      107.0441   1          85.8202    0.1086     0.411142   0          -9999      0          0.1656249  1.8831     0          1.9708     6648.736   0          1          2847.425   1         
2323.3808  13.5901    2.3047     110.1159   1          85.2874    0.0991     0.428435   0          -9999      0          0.1845625  1.7637     0          1.8745     6379.393   0          1          2767.993   1         
2323.5332  13.6463    2.2491     113.2758   1          84.5472    0.1006     0.460431   0          -9999      0          0.2193125  1.6951     0          1.7579     6051.828   0          1          2690.778   1         
2323.6856  13.6613    2.2113     115.7503   1          83.5018    0.1118     0.482627   0          -9999      0          0.2429375  1.6604     0          1.663      5822.915   0          1          2633.255   1         
2323.838   13.5977    2.2042     116.886    1          81.8707    0.1227     0.488038   0          -9999      0          0.2473749  1.6498     0          1.6125     5747.824   0          1          2607.669   1         
2323.9904  13.4614    2.2392     115.615    1          79.1115    0.1136     0.471042   0          -9999      0          0.2254999  1.6496     0          1.6377     5903.284   0          1          2636.336   1         
2324.1428  13.3747    2.2807     112.1863   1          76.7915    0.092      0.444536   0          -9999      0          0.1995625  1.6592     0          1.7312     6196.455   0          1          2716.909   1         
2324.2952  13.2944    2.3184     108.6296   1          75.8869    0.0746     0.416176   0          -9999      0          0.176      1.6814     0          1.8724     6505.117   0          1          2805.865   1         
2324.4476  13.2454    2.35       105.7055   1          76.9122    0.0616     0.390917   0          -9999      0          0.15625    1.7177     0          2.0249     6776.185   0          1          2883.483   1         
2324.6     13.2622    2.3741     104.1607   1          80.365     0.0513     0.374189   0          -9999      0          0.1411875  1.7694     0          2.1442     6947.205   0          1          2926.248   1         
2324.7524  13.3861    2.3768     104.0257   1          84.2393    0.058      0.372371   0          -9999      0          0.1394999  1.8207     0          2.143      6964.131   0          1          2930.045   1         
2324.9048  13.5891    2.3674     104.4939   1          85.6953    0.085      0.375208   0          -9999      0          0.145375   1.833      0          2.1054     6905.508   0          1          2916.917   1         
2325.0572  13.7733    2.3477     105.6172   1          84.6608    0.1186     0.381824   0          -9999      0          0.1576874  1.8098     0          2.0394     6775.212   0          1          2885.894   1         
2325.2096  13.8441    2.3205     107.4268   1          81.4495    0.1446     0.390852   0          -9999      0          0.1746875  1.756      0          1.9512     6583.91    0          1          2837.281   1         
2325.362   13.5908    2.2993     109.9777   1          80.4791    0.1303     0.393975   0          -9999      0          0.1879375  1.6808     0          1.8213     6372.443   0          1          2771.471   1         
2325.5144  13.4708    2.277      112.7334   1          81.6656    0.1004     0.393451   0          -9999      0          0.201875   1.6015     0          1.694      6156.38    0          1          2703.724   1         
2325.6668  13.3534    2.2538     115.6139   1          83.2231    0.0739     0.388372   0          -9999      0          0.216375   1.522      0          1.5864     5941.831   0          1          2636.361   1         
2325.8192  13.1885    2.2293     118.4992   1          83.9894    0.0612     0.380322   0          -9999      0          0.2316874  1.4443     0          1.5084     5734.137   0          1          2572.169   1         
2325.9716  13.0774    2.2001     120.9043   1          82.4118    0.066      0.381825   0          -9999      0          0.2499375  1.3688     0          1.4654     5546.457   0          1          2521.002   0.95054   
2326.124   13.0959    2.1706     122.4092   1          80.4964    0.0802     0.391449   0          -9999      0.01890091 0.268375   1.3227     0          1.4437     5404.813   0          0.8494198  2490.009   0.8870193 
2326.2764  13.2378    2.1572     122.8984   1          79.0101    0.0936     0.40414    0          -9999      0.01852693 0.2767499  1.3038     0          1.4306     5350.066   0          0.8327919  2480.097   0.9181265 
2326.4288  13.4517    2.163      122.1327   1          78.0989    0.1024     0.416556   0          -9999      0          0.2731249  1.3162     0          1.4265     5398.083   0          1          2495.646   1         
2326.5812  13.5713    2.1821     119.424    1          77.4665    0.1038     0.422605   0          -9999      0          0.2611874  1.3751     0          1.4456     5569.266   0          1          2552.251   1         
2326.7336  13.6339    2.1931     114.9078   1          75.1917    0.1061     0.420996   0          -9999      0          0.2543125  1.4869     0          1.5208     5817.332   0          1          2652.562   1         
2326.886   13.6504    2.2177     109.3366   1          72.1397    0.0976     0.411566   0          -9999      0          0.2389375  1.6264     0          1.6832     6182.33    0          1          2787.722   1         
2327.0384  13.562     2.2629     103.3114   1          68.7869    0.0746     0.391783   0          -9999      0          0.2106874  1.7868     0          1.9724     6676.242   0          1          2950.303   1         
2327.1908  13.2465    2.335      97.7869    1          65.7984    0.0341     0.3566     0          -9999      0          0.1656249  1.963      0          2.4576     7278.152   0          1          3116.982   1         
2327.3432  12.9368    2.3837     94.3146    1          63.0135    0.0081     0.312439   0          -9999      0          0.1351875  2.1167     0          3.0153     7703.492   0          1          3231.737   1         
2327.4956  12.7654    2.4148     92.8283    1          60.6512    -0.0036    0.27124    0          -9999      0          0.11575    2.2208     0          3.3478     7928.95    0          1          3283.481   1         
2327.648   12.7091    2.4185     93.5643    1          59.5659    0.0013     0.240706   0          -9999      0          0.1134375  2.2587     0          3.3307     7878.633   0          1          3257.653   0.9172501 
2327.8004  12.7234    2.3826     96.7492    4          60.7536    0.0251     0.228948   0          -9999      0          0.1358749  2.2146     0          2.8478     7506.175   0          1          3150.414   0.6707966 
2327.9528  12.8011    2.2896     102.2255   4          63.9737    0.0798     0.259745   0          -9999      0.06073329 0.194      2.0971     0          2.2644     6826.771   0          0.9378824  2981.644   0.4738374 
2328.1052  13.054     2.2023     107.8005   4          66.9734    0.1224     0.309315   0          -9999      0.1254154  0.2485624  1.9538     0          1.8467     6226.882   1          0.8865725  2827.445   0.4378562 
2328.2576  13.3869    2.1379     112.6053   4          69.1964    0.14       0.360172   0          -9999      0.1441647  0.2888124  1.8028     0          1.5866     5786.867   0          0.8120517  2706.8     0.5143032 
2328.41    13.6998    2.1089     115.894    4          70.1871    0.1249     0.397859   0          -9999      0.1226371  0.3069374  1.6633     0          1.4707     5546.385   0          0.7784101  2629.99    0.6552903 
