~Version
 VERS              .         2.0                           : CWLS LOG ASCII STANDARD - VERSION 2.0
 WRAP              .         NO                            : ONE LINE PER DEPTH STEP
 DLM               .         SPACE                         : DELIMITING CHARACTER(SPACE TAB OR COMMA)
~Well Information
#_______________________________________________________________________________
#
#PARAMETER_NAME    .UNIT     VALUE                         : DESCRIPTION
#_______________________________________________________________________________
STRT               .M        953                           : First reference value
STOP               .M        3080.3516                     : Last reference value
STEP               .M        0.1524                        : Step increment
NULL               .         -9999                         : Missing value
COMP               .         PETROLEO BRASILEIRO S/A       : Company
WELL               .         WELL1                         : Well name
FLD                .                                       : Field
LOC                .                                       : Location
PROV               .                                       : Province
SRVC               .         SCH                           : Service Company
DATE               .         04/09/2021                    : Date
UWI                .         7.43E+11                      : Unique Well ID
API                .         742810147700                  : API Code
COORDIN            .                                       : Grid System
COUNT              .         BRASIL                        : Country
CRS_Data           .         <?xml version="1.0" encoding="utf-8"?><!--INFO_ This file accompanies a data file and contains the spatial context.--><!--INFO_ It was made by serializing an Ocean spatial companion information record.--><!--INFO_ The coordinate reference system (CRS) is verbosely defined as ESRI well-known-text (WKT).--><SpatialCompanion version="1.0"><ILateBoundCoordinateReferenceSystem name="SIRGAS_2000_UTM_Zone_24S" crsType="Projected" engine="ESRI" engineVersion="PE_10_7_1"><AuthorityCode>EPSG,31984</AuthorityCode><WKT>PROJCS["SIRGAS_2000_UTM_Zone_24S",GEOGCS["GCS_SIRGAS_2000",DATUM["D_SIRGAS_2000",SPHEROID["GRS_1980",6378137.0,298.257222101]],PRIMEM["Greenwich",0.0],UNIT["Degree",0.0174532925199433]],PROJECTION["Transverse_Mercator"],PARAMETER["False_Easting",500000.0],PARAMETER["False_Northing",10000000.0],PARAMETER["Central_Meridian",-39.0],PARAMETER["Scale_Factor",0.9996],PARAMETER["Latitude_Of_Origin",0.0],UNIT["Meter",1.0],AUTHORITY["EPSG",31984]]</WKT></ILateBoundCoordinateReferenceSystem><Info history="" /></SpatialCompanion>: 
EDF                .M        13.00                         : Elevation Derrick Floor
EREF               .         13                            : 
DREF               .         MR                            : 
GDAT               .         SIRGAS2000                    : Geodetic Datum
HZCS               .         SIRGAS_2000_UTM_Zone_24S      : ESRI,PE_10_7_1- <?xml version="1.0" encoding="utf-16"?><ILateBoundCoordinateReferenceSystem name="SIRGAS_2000_UTM_Zone_24S"><AuthorityCode>EPSG,31984</AuthorityCode></ILateBoundCoordinateReferenceSystem>
Horizontal_coordinate_system_authority .         EPSG                          : 
Horizontal_coordinate_system_code .         31984                         : 
LAT                .         -22.087448                    : Latitude
LMF                .         MR                            : Log Measure From
LATI               .dega     -22.08757333                  : Latitude
LONG               .dega     -39.87572194                  : Longitude
MC                 .         39 W                          : Meridiano Central
MDEC               .         0                             : Magnetic Declination
ORIG               .         SIGEO EXPORTACAO PERFIL       : Origem dos dados
ORIGINALWELLNAME   .         1RJS 0342  RJ                 : 
OPER               .         Petrobras                     : 
RWS                .         0                             : Def_Rw
STATE              .         RIO DE JANEIRO                : State
STAT               .         RIO DE JANEIRO                : State
Total_Depth        .         3087                          : 
TD                 .         3087                          : 
UTMZ               .         24                            : UTM Zone
WDMS               .M        953.00                        : Water Depth to Mean Sea Level
WST                .         0                             : Def_Rwt
Water_depth        .M        953                           : 
X                  .         409660.31000000               : 
XCOORD             .         409658.99                     : Surface X
Y                  .         7557220.24000000              : 
YCOORD             .         7557234.00                    : Surface Y
group              .         AB140                         : 
~Parameter Information Block
#_______________________________________________________________________________
#
#PARAMETER_NAME    .UNIT     VALUE                         : DESCRIPTION
#_______________________________________________________________________________
SET                .         BEST_SET                      : 
TLFamily_CALI      .         Caliper                       : 
TLFamily_DENS      .         Bulk Density                  : 
TLFamily_DT        .         Compressional Slowness        : 
TLFamily_Eletrofacies_TGS .         Lithology                     : 
TLFamily_GR        .         Gamma Ray                     : 
TLFamily_HDRA      .         Bulk Density Correction       : 
TLFamily_MD        .         Measured Depth                : 
TLFamily_NEUT      .         Neutron Porosity              : 
TLFamily_PAY_NET_FLAG .         Net Pay Flag                  : 
TLFamily_PERM_WR_MC_MEAN .         Permeability                  : 
TLFamily_PHIE_F    .         Effective Porosity            : 
TLFamily_PHIT_F    .         Total Porosity                : 
TLFamily_RES_D     .         Resistivity - Deep            : 
TLFamily_RES_NET_FLAG .         Net Reservoir Flag            : 
TLFamily_RES_S     .         Resistivity - Spherically Focused: 
TLFamily_RHOV      .         Acoustic Impedance            : 
TLFamily_ROCK_NET_FLAG .         Net Rock Flag                 : 
TLFamily_SWE_SIM   .         Effective Water Saturation    : 
TLFamily_VP        .         Compressional Velocity        : 
TLFamily_VSH_FINAL .         Shale Volume Fraction         : 
~Curve Information
#_______________________________________________________________________________
#
#LOGNAME           .UNIT     LOG_ID                        : DESCRIPTION
#_______________________________________________________________________________
DEPTH              .M                                      : Measured Depth 
CALI               .in                                     : CALIPER 
DENS               .g/cm3                                  : BULK DENSITY 
DT                 .us/ft                                  : DELTA-T (ALSO CALLED SLOWNESS OR INTERVAL TRANSIT TIME) 
Eletrofacies_TGS   .unitless                               : Description 
GR                 .gAPI                                   : GAMMA RAY 
HDRA               .g/cm3                                  : BULK DENSITIY CORRECTION 
NEUT               .frac                                   : THERMAL NEUTRON POROSITY (ORIGINAL RATIO METHOD) IN SELECTED LITHOLOGY 
PAY_NET_FLAG       .unitless                               : unitless 
PERM_WR_MC_MEAN    .mD                                     : Permeability (Wyllie-Rose) 
PHIE_F             .m3/m3                                  :  
PHIT_F             .m3/m3                                  :  
RES_D              .ohm.m                                  : INDUCTION DEEP RESISTIVITY 
RES_NET_FLAG       .unitless                               : unitless 
RES_S              .ohm.m                                  : SFL RESISTIVITY UNAVERAGED 
RHOV               .g.m/cm3.s                              : Impedance from Geophy 
ROCK_NET_FLAG      .unitless                               : unitless 
SWE_SIM            .m3/m3                                  :  
VP                 .m/s                                    : Compressional velocity 
VSH_FINAL          .m3/m3                                  : Final computation of Shale volume fraction 
~Ascii
# ...
2841.6932  12.528     2.2328     92.1989    -9999      57.3029    0.1265     0.350268   0          -9999      0          0.2295     1.9009     0          -9999      7381.405   0          1          3305.896   0.8703997 
2841.8456  12.6856    2.164138   92.4465    -9999      57.9421    0.1126     0.369662   0          -9999      0.07528882 0.2724137  1.6137     0          -9999      7135.254   0          0.8286245  3297.042   0.7008886 
2841.998   13.3911    2.104882   96.6822    -9999      57.6677    0.1039     0.425323   0          -9999      0.07456821 0.3094486  1.2855     0          -9999      6635.846   0          0.8799279  3152.597   0.8351305 
2842.1504  14.6237    2.054463   104.9978   -9999      58.0388    0.0934     0.485727   0          -9999      0.0597109  0.3409608  1.1444     0          -9999      5963.937   0          1          2902.918   1         
2842.3028  15.1518    2.012427   112.964    -9999      58.6139    0.0968     0.51527    0          -9999      0.08598299 0.3672329  1.04       0          -9999      5429.941   0          1          2698.205   1         
2842.4552  15.2954    1.978325   116.4316   -9999      58.8237    0.1012     0.522518   0          -9999      0.1169835  0.3885467  0.9629     0          -9999      5178.951   0          0.9481562  2617.846   0.9655583 
2842.6076  15.3998    1.951667   112.181    -9999      58.1015    0.0952     0.51745    0          -9999      0.1776913  0.4052082  0.9056     0          -9999      5302.752   0          0.9857578  2717.038   0.8089492 
2842.76    16.01      1.932086   106.722    -9999      55.1071    0.0829     0.521069   0          -9999      0.2074007  0.4174464  0.8556     0          -9999      5518.073   0          0.9948848  2856.019   0.7468292 
2842.9124  15.8701    1.919081   104.5972   -9999      51.7606    0.0655     0.527319   0          -9999      0.2193347  0.4255741  0.8028     0          -9999      5592.272   0          1          2914.036   0.733296  
2843.0648  15.1928    1.912202   103.7917   -9999      49.5314    0.0431     0.530807   0          -9999      0.2252801  0.4298739  0.7859     0          -9999      5615.468   0          1          2936.651   0.7274451 
2843.2172  14.3701    1.910998   103.464    -9999      49.5025    0.0179     0.529684   0          -9999      0.2298345  0.4306265  0.8229     0          -9999      5629.708   0          0.9847066  2945.952   0.7139274 
2843.3696  15.3196    1.91502    105.7291   -9999      53.503     0.0051     0.532512   0          -9999      0.216492   0.4281125  0.8886     0          -9999      5520.695   0          0.9424165  2882.839   0.7524286 
2843.522   15.0535    1.923811   110.3661   -9999      58.6811    0.008      0.524688   0          -9999      0.215719   0.4226178  1.0071     0          -9999      5313.024   0          0.870467   2761.718   0.7356405 
2843.6744  14.5762    1.93692    113.948    -9999      62.9734    0.028      0.506303   0          -9999      0.2281867  0.4144252  1.0498     0          -9999      5181.075   0          0.8587043  2674.904   0.6621817 
2843.8268  14.1636    1.953923   114.4248   -9999      65.333     0.0633     0.480035   0          -9999      0.2492637  0.403798   1.0087     0          -9999      5204.779   0          0.8961528  2663.758   0.5494554 
2843.9792  13.5675    1.974315   108.4567   -9999      64.4579    0.1046     0.455984   0          -9999      0.2594364  0.3910531  1.0193     0          -9999      5548.493   0          0.9087241  2810.338   0.4679704 
2844.1316  12.4571    1.997668   101.8278   -9999      63.7575    0.0979     0.433316   0          -9999      0.2612042  0.3764576  1.0579     1          -9999      5979.597   1          0.9144525  2993.289   0.40979   
2844.284   11.9261    2.02353    100.409    -9999      64.4589    0.0721     0.418339   0          -9999      0.2426353  0.360294   1.1163     1          -9999      6142.595   1          0.9283968  3035.584   0.4183421 
2844.4364  11.7696    2.051448   102.2715   -9999      66.554     0.0429     0.412323   0          -9999      0.2020106  0.3428448  1.2016     0          -9999      6113.937   0          0.9407432  2980.302   0.5007439 
2844.5888  11.0582    2.081021   100.5749   -9999      69.4978    0.0324     0.415389   0          -9999      0.1398479  0.324362   1.3339     0          -9999      6306.694   0          0.9008143  3030.577   0.6560503 
2844.7412  10.2149    2.1117     101.0282   -9999      71.3777    0.0251     0.418839   0          -9999      0.07481284 0.3051874  1.4052     0          -9999      6370.956   0          0.8225666  3016.979   0.81911   
2844.8936  9.5589     2.1426     101.8557   -9999      72.8912    0.018      0.424358   0          -9999      0.005166305 0.2858749  1.545      0          -9999      6411.664   0          1          2992.469   0.9980755 
2845.046   9.0638     2.1774     102.2049   -9999      74.2036    0.0109     0.424506   0          -9999      0          0.159      1.763      0          -9999      6493.54    0          1          2982.244   -9999     
2845.1984  8.6501     2.2327     101.1393   -9999      75.4598    0.0041     0.408968   0          -9999      0          0.1195     2.0547     0          -9999      6728.611   0          1          3013.666   -9999     
2845.3508  8.5045     2.286736   95.7214    -9999      74.0787    0.0096     0.330801   0          -9999      0          0.08090291 2.5314     0          -9999      7281.519   0          1          3184.241   -9999     
2845.5032  8.4217     2.332111   88.671     -9999      69.7035    0.0259     0.235061   0          -9999      0          0.04849212 2.8913     0          -9999      8016.459   0          1          3437.426   -9999     
2845.6556  8.3737     2.368079   82.413     -9999      63.0524    0.0505     0.15706    0          -9999      0          0.02280099 3.2099     0          -9999      8758.21    0          1          3698.446   -9999     
2845.808   8.3392     2.393924   79.1631    -9999      55.1746    0.08       0.128177   0          -9999      0          0.004339729 3.54       0          -9999      9217.276   0          1          3850.279   -9999     
2845.9604  8.3564     2.408817   81.1128    -9999      52.3945    0.0981     0.166723   0          -9999      0          0          3.5393     0          -9999      9051.684   0          1          3757.73    -9999     
2846.1128  8.3607     2.412058   85.1363    -9999      55.3289    0.0905     0.218623   0          -9999      0          0          3.3586     0          -9999      8635.511   0          1          3580.142   -9999     
2846.2652  8.3536     2.402902   89.212     -9999      61.5065    0.0701     0.263849   0          -9999      0          0          3.041      0          -9999      8209.708   0          1          3416.581   -9999     
2846.4176  8.3356     2.3806     92.1906    -9999      69.0596    0.0468     0.289809   0          -9999      0          0.01385723 2.6316     0          -9999      7870.725   0          1          3306.194   -9999     
2846.57    8.3039     2.3501     93.8485    -9999      74.5841    0.0386     0.286161   0          -9999      0          0.03564289 2.2741     0          -9999      7632.625   0          1          3247.788   -9999     
2846.7224  8.2768     2.331      96.0734    -9999      78.615     0.036      0.290928   0          -9999      0          0.04928571 2.1135     0          -9999      7395.271   0          1          3172.574   -9999     
2846.8748  8.2667     2.3173     97.0629    -9999      81.4831    0.0318     0.307159   0          -9999      0          0.05907143 2.0533     0          -9999      7276.859   0          1          3140.232   -9999     
2847.0272  8.2769     2.3101     95.8596    -9999      83.381     0.0238     0.326433   0          -9999      0          0.0642143  2.072      0          -9999      7345.31    0          1          3179.65    -9999     
2847.1796  8.3035     2.3223     91.1447    -9999      84.6162    0.0132     0.313633   0          -9999      0          0.05550009 2.208      0          -9999      7766.081   0          1          3344.133   -9999     
