~Version
 VERS              .         2.0                           : CWLS LOG ASCII STANDARD - VERSION 2.0
 WRAP              .         NO                            : ONE LINE PER DEPTH STEP
 DLM               .         SPACE                         : DELIMITING CHARACTER(SPACE TAB OR COMMA)
~Well Information
#_______________________________________________________________________________
#
#PARAMETER_NAME    .UNIT     VALUE                         : DESCRIPTION
#_______________________________________________________________________________
STRT               .M        953                           : First reference value
STOP               .M        3080.3516                     : Last reference value
STEP               .M        0.1524                        : Step increment
NULL               .         -9999                         : Missing value
COMP               .         PETROLEO BRASILEIRO S/A       : Company
WELL               .         WELL1                         : Well name
FLD                .                                       : Field
LOC                .                                       : Location
PROV               .                                       : Province
SRVC               .         SCH                           : Service Company
DATE               .         04/09/2021                    : Date
UWI                .         7.43E+11                      : Unique Well ID
API                .         742810147700                  : API Code
COORDIN            .                                       : Grid System
COUNT              .         BRASIL                        : Country
CRS_Data           .         <?xml version="1.0" encoding="utf-8"?><!--INFO_ This file accompanies a data file and contains the spatial context.--><!--INFO_ It was made by serializing an Ocean spatial companion information record.--><!--INFO_ The coordinate reference system (CRS) is verbosely defined as ESRI well-known-text (WKT).--><SpatialCompanion version="1.0"><ILateBoundCoordinateReferenceSystem name="SIRGAS_2000_UTM_Zone_24S" crsType="Projected" engine="ESRI" engineVersion="PE_10_7_1"><AuthorityCode>EPSG,31984</AuthorityCode><WKT>PROJCS["SIRGAS_2000_UTM_Zone_24S",GEOGCS["GCS_SIRGAS_2000",DATUM["D_SIRGAS_2000",SPHEROID["GRS_1980",6378137.0,298.257222101]],PRIMEM["Greenwich",0.0],UNIT["Degree",0.0174532925199433]],PROJECTION["Transverse_Mercator"],PARAMETER["False_Easting",500000.0],PARAMETER["False_Northing",10000000.0],PARAMETER["Central_Meridian",-39.0],PARAMETER["Scale_Factor",0.9996],PARAMETER["Latitude_Of_Origin",0.0],UNIT["Meter",1.0],AUTHORITY["EPSG",31984]]</WKT></ILateBoundCoordinateReferenceSystem><Info history="" /></SpatialCompanion>: 
EDF                .M        13.00                         : Elevation Derrick Floor
EREF               .         13                            : 
DREF               .         MR                            : 
GDAT               .         SIRGAS2000                    : Geodetic Datum
HZCS               .         SIRGAS_2000_UTM_Zone_24S      : ESRI,PE_10_7_1- <?xml version="1.0" encoding="utf-16"?><ILateBoundCoordinateReferenceSystem name="SIRGAS_2000_UTM_Zone_24S"><AuthorityCode>EPSG,31984</AuthorityCode></ILateBoundCoordinateReferenceSystem>
Horizontal_coordinate_system_authority .         EPSG                          : 
Horizontal_coordinate_system_code .         31984                         : 
LAT                .         -22.087448                    : Latitude
LMF                .         MR                            : Log Measure From
LATI               .dega     -22.08757333                  : Latitude
LONG               .dega     -39.87572194                  : Longitude
MC                 .         39 W                          : Meridiano Central
MDEC               .         0                             : Magnetic Declination
ORIG               .         SIGEO EXPORTACAO PERFIL       : Origem dos dados
ORIGINALWELLNAME   .         1RJS 0342  RJ                 : 
OPER               .         Petrobras                     : 
RWS                .         0                             : Def_Rw
STATE              .         RIO DE JANEIRO                : State
STAT               .         RIO DE JANEIRO                : State
Total_Depth        .         3087                          : 
TD                 .         3087                          : 
UTMZ               .         24                            : UTM Zone
WDMS               .M        953.00                        : Water Depth to Mean Sea Level
WST                .         0                             : Def_Rwt
Water_depth        .M        953                           : 
X                  .         409660.31000000               : 
XCOORD             .         409658.99                     : Surface X
Y                  .         7557220.24000000              : 
YCOORD             .         7557234.00                    : Surface Y
group              .         AB140                         : 
~Parameter Information Block
#_______________________________________________________________________________
#
#PARAMETER_NAME    .UNIT     VALUE                         : DESCRIPTION
#_______________________________________________________________________________
SET                .         BEST_SET                      : 
TLFamily_CALI      .         Caliper                       : 
TLFamily_DENS      .         Bulk Density                  : 
TLFamily_DT        .         Compressional Slowness        : 
TLFamily_Eletrofacies_TGS .         Lithology                     : 
TLFamily_GR        .         Gamma Ray                     : 
TLFamily_HDRA      .         Bulk Density Correction       : 
TLFamily_MD        .         Measured Depth                : 
TLFamily_NEUT      .         Neutron Porosity              : 
TLFamily_PAY_NET_FLAG .         Net Pay Flag                  : 
TLFamily_PERM_WR_MC_MEAN .         Permeability                  : 
TLFamily_PHIE_F    .         Effective Porosity            : 
TLFamily_PHIT_F    .         Total Porosity                : 
TLFamily_RES_D     .         Resistivity - Deep            : 
TLFamily_RES_NET_FLAG .         Net Reservoir Flag            : 
TLFamily_RES_S     .         Resistivity - Spherically Focused: 
TLFamily_RHOV      .         Acoustic Impedance            : 
TLFamily_ROCK_NET_FLAG .         Net Rock Flag                 : 
TLFamily_SWE_SIM   .         Effective Water Saturation    : 
TLFamily_VP        .         Compressional Velocity        : 
TLFamily_VSH_FINAL .         Shale Volume Fraction         : 
~Curve Information
#_______________________________________________________________________________
#
#LOGNAME           .UNIT     LOG_ID                        : DESCRIPTION
#_______________________________________________________________________________
DEPTH              .M                                      : Measured Depth 
CALI               .in                                     : CALIPER 
DENS               .g/cm3                                  : BULK DENSITY 
DT                 .us/ft                                  : DELTA-T (ALSO CALLED SLOWNESS OR INTERVAL TRANSIT TIME) 
Eletrofacies_TGS   .unitless                               : Description 
GR                 .gAPI                                   : GAMMA RAY 
HDRA               .g/cm3                                  : BULK DENSITIY CORRECTION 
NEUT               .frac                                   : THERMAL NEUTRON POROSITY (ORIGINAL RATIO METHOD) IN SELECTED LITHOLOGY 
PAY_NET_FLAG       .unitless                               : unitless 
PERM_WR_MC_MEAN    .mD                                     : Permeability (Wyllie-Rose) 
PHIE_F             .m3/m3                                  :  
PHIT_F             .m3/m3                                  :  
RES_D              .ohm.m                                  : INDUCTION DEEP RESISTIVITY 
RES_NET_FLAG       .unitless                               : unitless 
RES_S              .ohm.m                                  : SFL RESISTIVITY UNAVERAGED 
RHOV               .g.m/cm3.s                              : Impedance from Geophy 
ROCK_NET_FLAG      .unitless                               : unitless 
SWE_SIM            .m3/m3                                  :  
VP                 .m/s                                    : Compressional velocity 
VSH_FINAL          .m3/m3                                  : Final computation of Shale volume fraction 
~Ascii
# ...
2260.8968  14.5879    2.0802     122.3492   1          71.0549    0.1117     0.383986   0          -9999      0.2050554  0.324875   1.3097     1          1.5475     5182.257   1          0.9330257  2491.23    0.4260252 
2261.0492  14.4426    2.096      122.8402   1          73.1674    0.1006     0.380994   0          -9999      0.1812285  0.315      1.3251     0          1.5301     5200.747   0          0.9558049  2481.272   0.4756322 
2261.2016  14.3221    2.0924     123.2854   1          74.9021    0.105      0.380469   0          -9999      0.1891032  0.3172499  1.3434     0          1.5404     5173.066   0          0.940097   2472.312   0.455633  
2261.354   14.0474    2.0896     122.7373   1          73.8185    0.1066     0.383972   0          -9999      0.1872998  0.3189999  1.3949     0          1.554      5189.214   0          0.9102408  2483.353   0.4682672 
2261.5064  13.9088    2.093      121.103    1          71.5036    0.101      0.389468   0          -9999      0.1697271  0.316875   1.4708     0          1.584      5267.8     0          0.8765107  2516.866   0.5231926 
2261.6588  13.7425    2.1084     118.3714   1          68.4211    0.092      0.387152   0          -9999      0.1452864  0.3072499  1.578      0          1.6703     5429.017   0          0.841121   2574.946   0.5758706 
2261.8112  13.4322    2.1407     114.6382   1          65.0156    0.0812     0.368947   0          -9999      0.1210803  0.2870624  1.7187     0          1.8459     5691.693   0          0.8191909  2658.8     0.5901589 
2261.9636  13.081     2.2        110.8966   1          62.1938    0.0551     0.325816   0          -9999      0.09631884 0.2499999  1.8605     0          2.1525     6046.714   0          0.8585154  2748.506   0.5464218 
2262.116   12.933     2.2568     108.6966   1          60.8697    0.0294     0.298824   0          -9999      0.0435731  0.2145     1.9643     0          2.4432     6328.373   0          0.8168283  2804.135   0.6077403 
2262.2684  12.924     2.2915     107.9106   1          60.8711    0.0146     0.295147   0          -9999      0          0.1928124  2.0281     0          2.6187     6472.48    0          1          2824.56    0.7375463 
2262.4208  13.0546    2.2923     108.4286   1          62.0118    0.0175     0.315794   0          -9999      0          0.1923125  2.054      0          2.6171     6443.808   0          1          2811.067   0.8899564 
2262.5732  13.4921    2.2452     109.9705   1          63.7085    0.048      0.347763   0          -9999      0          0.22175    2.0599     0          2.3554     6222.914   0          1          2771.652   0.908201  
2262.7256  13.875     2.1798     112.0062   1          65.1069    0.0878     0.376113   0          -9999      0.03258175 0.2626249  2.026      0          2.0855     5931.841   0          0.5987995  2721.278   0.8179317 
2262.878   14.0514    2.1255     114.1947   1          66.2177    0.1128     0.39698    0          -9999      0.09301363 0.2965625  1.9421     0          1.8831     5673.227   0          0.6594736  2669.125   0.7237296 
2263.0304  13.9993    2.0975     116.4465   1          67.2927    0.1127     0.407735   0          -9999      0.1241857  0.3140624  1.8177     0          1.7591     5490.229   0          0.7022386  2617.511   0.6751173 
2263.1828  13.7807    2.1171     118.7771   1          69.0995    0.0765     0.403568   0          -9999      0.09555145 0.3018125  1.6914     0          1.6827     5432.799   0          0.7383117  2566.151   0.7333728 
2263.3352  13.8004    2.1434     119.9536   1          71.3616    0.051      0.398559   0          -9999      0.05594816 0.285375   1.5985     0          1.6306     5446.342   0          0.7455643  2540.982   0.8157402 
2263.4876  13.8895    2.1607     119.9066   1          73.1828    0.046      0.391294   0          -9999      0.03794461 0.2745624  1.541      0          1.6193     5492.453   0          0.761412   2541.979   0.8413081 
2263.64    13.9559    2.1669     119.0007   1          73.7393    0.0582     0.380608   0          -9999      0.04787594 0.2706875  1.5154     0          1.6458     5550.144   0          0.8138046  2561.329   0.7922192 
2263.7924  13.8765    2.162      117.9351   1          71.7569    0.0783     0.364743   0          -9999      0.08930492 0.27375    1.5145     0          1.6998     5587.629   0          0.9068245  2584.472   0.655805  
2263.9448  13.8908    2.1536     117.4965   1          67.4371    0.0908     0.359      0          -9999      0.1168379  0.279      1.5119     0          1.7439     5586.697   0          0.9385791  2594.12    0.5765766 
2264.0972  13.9177    2.1583     117.1197   1          63.9378    0.0882     0.365973   0          -9999      0.09381165 0.2760625  1.5226     0          1.764      5616.901   0          0.9028304  2602.466   0.6480033 
2264.2496  13.9288    2.1741     116.7348   1          62.3129    0.0748     0.379251   0          -9999      0.03700504 0.2661875  1.5454     0          1.7729     5676.676   0          0.7837676  2611.047   0.8148713 
2264.402   13.8963    2.1965     116.298    1          63.4905    0.0567     0.390991   0          -9999      0          0.2521874  1.5782     0          1.7866     5756.705   0          1          2620.854   1         
2264.5544  13.7112    2.1855     115.6461   1          65.9938    0.0728     0.39239    0          -9999      0          0.2590625  1.6336     0          1.8357     5760.163   0          1          2635.627   0.9609181 
2264.7068  13.5843    2.1689     114.8593   1          67.6682    0.0918     0.385957   0          -9999      0.03324942 0.2694375  1.6925     0          1.9184     5755.57    0          0.697169   2653.681   0.83978   
2264.8592  13.5121    2.1636     114.1916   1          68.3079    0.0945     0.375636   0          -9999      0.06419749 0.27275    1.7406     0          2.0107     5775.077   0          0.7440131  2669.198   0.7415203 
2265.0116  13.481     2.1811     113.81     1          67.794     0.0691     0.365625   0          -9999      0.05138207 0.2618125  1.7694     0          2.0906     5841.308   0          0.7362396  2678.148   0.7481975 
2265.164   13.372     2.2099     113.4652   1          66.3147    0.0419     0.369597   0          -9999      0          0.2438125  1.7973     0          2.1115     5936.423   0          1          2686.286   0.9065544 
2265.3164  13.4111    2.222      113.0159   1          65.209     0.0284     0.377138   0          -9999      0          0.23625    1.8216     0          2.0903     5992.657   0          1          2696.966   1         
2265.4688  13.4936    2.2238     112.6071   1          64.6701    0.0263     0.379644   0          -9999      0          0.235125   1.8427     0          2.0485     6019.285   0          1          2706.756   1         
2265.6212  13.5578    2.2195     112.2854   1          64.619     0.0328     0.373688   0          -9999      0          0.2378124  1.8598     0          2.0024     6024.858   0          1          2714.511   0.979283  
2265.7736  13.5286    2.2174     111.9431   1          64.1591    0.0392     0.36205    0          -9999      0          0.2391249  1.869      0          1.9861     6037.563   0          1          2722.812   0.8859462 
2265.926   13.5302    2.2111     112.0054   1          64.0315    0.051      0.36206    0          -9999      0.001851239 0.2430624  1.8594     0          1.9937     6017.061   0          1          2721.297   0.85764   
2266.0784  13.5364    2.2012     112.4786   1          64.8261    0.0636     0.371153   0          -9999      0.002149422 0.24925    1.8359     0          2.0082     5964.919   0          1          2709.849   0.87858   
2266.2308  13.5441    2.1897     113.2484   1          65.9893    0.0733     0.385546   0          -9999      0          0.2564375  1.7998     0          2.0162     5893.421   0          1          2691.429   0.9305109 
2266.3832  13.5656    2.1821     113.9657   1          65.3672    0.072      0.395934   0          -9999      0          0.2611874  1.7507     0          1.9905     5836.003   0          1          2674.489   0.9711458 
