~Version
 VERS              .         2.0                           : CWLS LOG ASCII STANDARD - VERSION 2.0
 WRAP              .         NO                            : ONE LINE PER DEPTH STEP
 DLM               .         SPACE                         : DELIMITING CHARACTER(SPACE TAB OR COMMA)
~Well Information
#_______________________________________________________________________________
#
#PARAMETER_NAME    .UNIT     VALUE                         : DESCRIPTION
#_______________________________________________________________________________
STRT               .M        953                           : First reference value
STOP               .M        3080.3516                     : Last reference value
STEP               .M        0.1524                        : Step increment
NULL               .         -9999                         : Missing value
COMP               .         PETROLEO BRASILEIRO S/A       : Company
WELL               .         WELL1                         : Well name
FLD                .                                       : Field
LOC                .                                       : Location
PROV               .                                       : Province
SRVC               .         SCH                           : Service Company
DATE               .         04/09/2021                    : Date
UWI                .         7.43E+11                      : Unique Well ID
API                .         742810147700                  : API Code
COORDIN            .                                       : Grid System
COUNT              .         BRASIL                        : Country
CRS_Data           .         <?xml version="1.0" encoding="utf-8"?><!--INFO_ This file accompanies a data file and contains the spatial context.--><!--INFO_ It was made by serializing an Ocean spatial companion information record.--><!--INFO_ The coordinate reference system (CRS) is verbosely defined as ESRI well-known-text (WKT).--><SpatialCompanion version="1.0"><ILateBoundCoordinateReferenceSystem name="SIRGAS_2000_UTM_Zone_24S" crsType="Projected" engine="ESRI" engineVersion="PE_10_7_1"><AuthorityCode>EPSG,31984</AuthorityCode><WKT>PROJCS["SIRGAS_2000_UTM_Zone_24S",GEOGCS["GCS_SIRGAS_2000",DATUM["D_SIRGAS_2000",SPHEROID["GRS_1980",6378137.0,298.257222101]],PRIMEM["Greenwich",0.0],UNIT["Degree",0.0174532925199433]],PROJECTION["Transverse_Mercator"],PARAMETER["False_Easting",500000.0],PARAMETER["False_Northing",10000000.0],PARAMETER["Central_Meridian",-39.0],PARAMETER["Scale_Factor",0.9996],PARAMETER["Latitude_Of_Origin",0.0],UNIT["Meter",1.0],AUTHORITY["EPSG",31984]]</WKT></ILateBoundCoordinateReferenceSystem><Info history="" /></SpatialCompanion>: 
EDF                .M        13.00                         : Elevation Derrick Floor
EREF               .         13                            : 
DREF               .         MR                            : 
GDAT               .         SIRGAS2000                    : Geodetic Datum
HZCS               .         SIRGAS_2000_UTM_Zone_24S      : ESRI,PE_10_7_1- <?xml version="1.0" encoding="utf-16"?><ILateBoundCoordinateReferenceSystem name="SIRGAS_2000_UTM_Zone_24S"><AuthorityCode>EPSG,31984</AuthorityCode></ILateBoundCoordinateReferenceSystem>
Horizontal_coordinate_system_authority .         EPSG                          : 
Horizontal_coordinate_system_code .         31984                         : 
LAT                .         -22.087448                    : Latitude
LMF                .         MR                            : Log Measure From
LATI               .dega     -22.08757333                  : Latitude
LONG               .dega     -39.87572194                  : Longitude
MC                 .         39 W                          : Meridiano Central
MDEC               .         0                             : Magnetic Declination
ORIG               .         SIGEO EXPORTACAO PERFIL       : Origem dos dados
ORIGINALWELLNAME   .         1RJS 0342  RJ                 : 
OPER               .         Petrobras                     : 
RWS                .         0                             : Def_Rw
STATE              .         RIO DE JANEIRO                : State
STAT               .         RIO DE JANEIRO                : State
Total_Depth        .         3087                          : 
TD                 .         3087                          : 
UTMZ               .         24                            : UTM Zone
WDMS               .M        953.00                        : Water Depth to Mean Sea Level
WST                .         0                             : Def_Rwt
Water_depth        .M        953                           : 
X                  .         409660.31000000               : 
XCOORD             .         409658.99                     : Surface X
Y                  .         7557220.24000000              : 
YCOORD             .         7557234.00                    : Surface Y
group              .         AB140                         : 
~Parameter Information Block
#_______________________________________________________________________________
#
#PARAMETER_NAME    .UNIT     VALUE                         : DESCRIPTION
#_______________________________________________________________________________
SET                .         BEST_SET                      : 
TLFamily_CALI      .         Caliper                       : 
TLFamily_DENS      .         Bulk Density                  : 
TLFamily_DT        .         Compressional Slowness        : 
TLFamily_Eletrofacies_TGS .         Lithology                     : 
TLFamily_GR        .         Gamma Ray                     : 
TLFamily_HDRA      .         Bulk Density Correction       : 
TLFamily_MD        .         Measured Depth                : 
TLFamily_NEUT      .         Neutron Porosity              : 
TLFamily_PAY_NET_FLAG .         Net Pay Flag                  : 
TLFamily_PERM_WR_MC_MEAN .         Permeability                  : 
TLFamily_PHIE_F    .         Effective Porosity            : 
TLFamily_PHIT_F    .         Total Porosity                : 
TLFamily_RES_D     .         Resistivity - Deep            : 
TLFamily_RES_NET_FLAG .         Net Reservoir Flag            : 
TLFamily_RES_S     .         Resistivity - Spherically Focused: 
TLFamily_RHOV      .         Acoustic Impedance            : 
TLFamily_ROCK_NET_FLAG .         Net Rock Flag                 : 
TLFamily_SWE_SIM   .         Effective Water Saturation    : 
TLFamily_VP        .         Compressional Velocity        : 
TLFamily_VSH_FINAL .         Shale Volume Fraction         : 
~Curve Information
#_______________________________________________________________________________
#
#LOGNAME           .UNIT     LOG_ID                        : DESCRIPTION
#_______________________________________________________________________________
DEPTH              .M                                      : Measured Depth 
CALI               .in                                     : CALIPER 
DENS               .g/cm3                                  : BULK DENSITY 
DT                 .us/ft                                  : DELTA-T (ALSO CALLED SLOWNESS OR INTERVAL TRANSIT TIME) 
Eletrofacies_TGS   .unitless                               : Description 
GR                 .gAPI                                   : GAMMA RAY 
HDRA               .g/cm3                                  : BULK DENSITIY CORRECTION 
NEUT               .frac                                   : THERMAL NEUTRON POROSITY (ORIGINAL RATIO METHOD) IN SELECTED LITHOLOGY 
PAY_NET_FLAG       .unitless                               : unitless 
PERM_WR_MC_MEAN    .mD                                     : Permeability (Wyllie-Rose) 
PHIE_F             .m3/m3                                  :  
PHIT_F             .m3/m3                                  :  
RES_D              .ohm.m                                  : INDUCTION DEEP RESISTIVITY 
RES_NET_FLAG       .unitless                               : unitless 
RES_S              .ohm.m                                  : SFL RESISTIVITY UNAVERAGED 
RHOV               .g.m/cm3.s                              : Impedance from Geophy 
ROCK_NET_FLAG      .unitless                               : unitless 
SWE_SIM            .m3/m3                                  :  
VP                 .m/s                                    : Compressional velocity 
VSH_FINAL          .m3/m3                                  : Final computation of Shale volume fraction 
~Ascii
# ...
2666.8904  12.9303    2.354204   82.1879    4          40.1369    0.0163     0.217025   0          2.182987   0.1057317  0.1792702  2.1559     0          3.2026     8730.743   1          0.6539583  3708.575   0.3466816 
2667.0428  12.8367    2.360527   82.1511    4          39.9016    0.0202     0.222985   0          0.9839383  0.09258159 0.1754382  2.5467     0          2.8764     8758.113   1          0.6270368  3710.236   0.3906096 
2667.1952  12.7558    2.363231   82.2573    4          40.9106    0.0237     0.217984   0          1.078192   0.09400393 0.1737992  2.785      0          2.8226     8756.826   1          0.5928023  3705.446   0.3761775 
2667.3476  12.7589    2.362538   81.954     4          44.4806    0.0165     0.212883   0          1.525058   0.09959657 0.1742192  2.9111     0          2.7123     8786.656   1          0.5651487  3719.159   0.3517924 
2667.5     12.7494    2.358685   81.2954    4          47.2006    0.013      0.21614    0          1.676566   0.1011813  0.1765549  2.9971     0          2.6176     8843.392   1          0.5480869  3749.29    0.3553326 
2667.6524  12.7293    2.351899   80.6427    4          48.5556    0.018      0.223416   0          1.815503   0.1025328  0.1806672  2.9899     0          2.5442     8889.321   1          0.5394875  3779.635   0.3683479 
2667.8048  12.7043    2.342411   80.3879    4          48.2712    0.0351     0.229665   0          2.491418   0.1080864  0.1864177  2.8325     0          2.4916     8881.521   1          0.5388328  3791.615   0.3692761 
2667.9572  12.6783    2.330428   81.3851    4          49.131     0.0493     0.228541   0          5.547866   0.1235144  0.1936798  2.4396     0          2.3511     8727.82    1          0.5504179  3745.157   0.3307796 
2668.1096  12.6349    2.31622    83.4695    4          50.974     0.0443     0.228722   0          11.96585   0.1403957  0.2022911  1.9678     1          2.0987     8457.986   1          0.5781041  3651.633   0.2917922 
2668.262   12.6004    2.299997   86.8829    4          52.7399    0.0281     0.230582   0          24.42649   0.1581273  0.2121232  1.49       1          1.7451     8068.781   1          0.6244462  3508.17    0.2545519 
2668.4144  12.5849    2.281989   91.7241    4          53.5183    0.0082     0.234423   0          46.68193   0.1761522  0.2230372  1.0623     1          1.3108     7583.068   1          0.6941518  3323.009   0.2210293 
2668.5668  12.5272    2.262392   97.582     3          51.3306    0.0055     0.240911   0          82.30358   0.1936124  0.2349138  0.7619     1          0.909      7066.643   1          0.770048   3123.527   0.1947067 
2668.7192  12.4121    2.2415     103.0316   3          47.4866    0.0115     0.249186   0          137.7272   0.2109599  0.2475759  0.5741     1          0.6523     6631.064   1          0.8340445  2958.316   0.172618  
2668.8716  12.3343    2.2207     107.3052   3          43.3626    0.0185     0.257953   0          217.9839   0.2277372  0.2601818  0.4553     1          0.5147     6307.89    1          0.8840809  2840.496   0.1529531 
2669.024   12.3207    2.2021     109.9801   3          39.8497    0.023      0.265904   0          318.8265   0.2426363  0.2714546  0.385      1          0.4748     6102.923   1          0.9153224  2771.41    0.1358576 
2669.1764  12.3233    2.1811     110.5338   3          38.4983    0.0242     0.269476   0          535.0563   0.2645026  0.2841819  0.3483     1          0.482      6014.443   1          0.9000505  2757.528   0.09277392
2669.3288  12.3322    2.1742     109.8865   3          40.9903    0.0269     0.278563   0          532.6168   0.2643012  0.2883636  0.3294     1          0.5073     6030.733   1          0.9243912  2773.771   0.1134372 
2669.4812  12.3401    2.1751     108.874    3          45.3897    0.0264     0.296081   0          353.7045   0.246871   0.2878182  0.3184     1          0.5495     6089.337   1          0.9874294  2799.566   0.1930365 
2669.6336  12.3509    2.1782     107.963    3          50.0533    0.0206     0.319967   0          181.3396   0.2208575  0.2859394  0.3122     1          0.6036     6149.472   1          1          2823.189   0.3068147 
2669.786   12.3792    2.1719     107.8648   2          51.8779    0.0063     0.343155   0          122.1272   0.2067753  0.2897576  0.3092     1          0.6568     6137.268   1          1          2825.76    0.391202  
2669.9384  12.4342    2.1636     108.9198   3          49.2997    -0.0032    0.338238   0          183.6531   0.2213246  0.2947879  0.3058     1          0.6476     6054.595   1          1          2798.389   0.346327  
2670.0908  12.4786    2.1602     110.5738   3          44.8258    -0.0067    0.321409   0          306.9924   0.2411115  0.2968484  0.302      1          0.5962     5954.657   1          1          2756.53    0.2627598 
2670.2432  12.5043    2.1602     112.3408   3          39.8495    -0.0058    0.30251    0          468.9301   0.2587506  0.2968484  0.2992     1          0.5264     5860.996   1          0.981428   2713.173   0.1796042 
2670.3956  12.5056    2.1602     113.5552   3          36.1109    -0.0029    0.294095   0          561.081    0.2666046  0.2968484  0.2996     1          0.4717     5798.316   1          0.960026   2684.157   0.1425782 
2670.548   12.4543    2.1577     113.3286   3          37.024     0.0032     0.28792    0          681.2407   0.275368   0.2983636  0.3068     1          0.4473     5803.187   1          0.9261912  2689.524   0.108408  
2670.7004  12.3625    2.1645     112.143    3          40.9439    0.0135     0.279553   0          676.0518   0.2750173  0.2942425  0.3164     1          0.4386     5883.021   1          0.9144431  2717.958   0.09063302
2670.8528  12.2787    2.1812     110.2981   3          46.4635    0.0237     0.270765   0          519.1956   0.2631794  0.2841212  0.3267     1          0.4558     6027.572   1          0.9329781  2763.42    0.09872594
2671.0052  12.2519    2.2068     108.1473   3          52.0932    0.0294     0.26373    0          291.3968   0.2390254  0.2686061  0.3362     1          0.5089     6219.597   1          0.9925244  2818.378   0.1394518 
2671.1576  12.3124    2.2079     107.2365   3          55.0757    0.0207     0.265575   0          269.841    0.2359833  0.2679394  0.3448     1          0.6054     6275.549   1          0.9891438  2842.316   0.1506501 
2671.31    12.357     2.1827     107.7679   3          56.2213    0.0127     0.282357   0          386.6281   0.2505603  0.2832122  0.3555     1          0.6523     6173.331   1          0.9259833  2828.301   0.1539305 
2671.4624  12.3846    2.1501     109.3474   3          56.2382    0.0077     0.313159   0          493.1516   0.2609316  0.3029698  0.3676     1          0.6356     5993.289   1          0.8757638  2787.446   0.1981795 
2671.6148  12.3998    2.1243     111.568    3          55.5934    0.0061     0.353881   0          418.4432   0.2538844  0.3186061  0.3791     1          0.5565     5803.516   1          0.8712463  2731.966   0.3051163 
2671.7672  12.4484    2.122      113.1605   2          54.3462    -0         0.375171   0          275.3097   0.2367738  0.3200001  0.3802     1          0.4983     5715.648   1          0.9114612  2693.519   0.3923523 
2671.9196  12.5159    2.1264     113.6428   3          52.8919    -0.0067    0.366659   0          294.4296   0.2394383  0.3173334  0.3718     1          0.481      5703.192   1          0.9165885  2682.088   0.3672196 
2672.072   12.5772    2.136      113.1949   3          51.9137    -0.0095    0.338419   0          422.3277   0.2542757  0.3115152  0.3608     1          0.4904     5751.609   1          0.8961995  2692.701   0.2698432 
2672.2244  12.6113    2.1507     111.9949   3          51.7643    -0.0068    0.298031   0          665.9925   0.274331   0.302606   0.3516     1          0.5177     5853.243   1          0.8650725  2721.552   0.1332965 
2672.3768  12.5691    2.1731     110.5215   3          52.8239    0.0013     0.261658   0          775.8145   0.2813993  0.2890303  0.3513     1          0.5495     5993.05    1          0.8555121  2757.834   0.03597507
