~Version
 VERS              .         2.0                           : CWLS LOG ASCII STANDARD - VERSION 2.0
 WRAP              .         NO                            : ONE LINE PER DEPTH STEP
 DLM               .         SPACE                         : DELIMITING CHARACTER(SPACE TAB OR COMMA)
~Well Information
#_______________________________________________________________________________
#
#PARAMETER_NAME    .UNIT     VALUE                         : DESCRIPTION
#_______________________________________________________________________________
STRT               .M        953                           : First reference value
STOP               .M        3080.3516                     : Last reference value
STEP               .M        0.1524                        : Step increment
NULL               .         -9999                         : Missing value
COMP               .         PETROLEO BRASILEIRO S/A       : Company
WELL               .         WELL1                         : Well name
FLD                .                                       : Field
LOC                .                                       : Location
PROV               .                                       : Province
SRVC               .         SCH                           : Service Company
DATE               .         04/09/2021                    : Date
UWI                .         7.43E+11                      : Unique Well ID
API                .         742810147700                  : API Code
COORDIN            .                                       : Grid System
COUNT              .         BRASIL                        : Country
CRS_Data           .         <?xml version="1.0" encoding="utf-8"?><!--INFO_ This file accompanies a data file and contains the spatial context.--><!--INFO_ It was made by serializing an Ocean spatial companion information record.--><!--INFO_ The coordinate reference system (CRS) is verbosely defined as ESRI well-known-text (WKT).--><SpatialCompanion version="1.0"><ILateBoundCoordinateReferenceSystem name="SIRGAS_2000_UTM_Zone_24S" crsType="Projected" engine="ESRI" engineVersion="PE_10_7_1"><AuthorityCode>EPSG,31984</AuthorityCode><WKT>PROJCS["SIRGAS_2000_UTM_Zone_24S",GEOGCS["GCS_SIRGAS_2000",DATUM["D_SIRGAS_2000",SPHEROID["GRS_1980",6378137.0,298.257222101]],PRIMEM["Greenwich",0.0],UNIT["Degree",0.0174532925199433]],PROJECTION["Transverse_Mercator"],PARAMETER["False_Easting",500000.0],PARAMETER["False_Northing",10000000.0],PARAMETER["Central_Meridian",-39.0],PARAMETER["Scale_Factor",0.9996],PARAMETER["Latitude_Of_Origin",0.0],UNIT["Meter",1.0],AUTHORITY["EPSG",31984]]</WKT></ILateBoundCoordinateReferenceSystem><Info history="" /></SpatialCompanion>: 
EDF                .M        13.00                         : Elevation Derrick Floor
EREF               .         13                            : 
DREF               .         MR                            : 
GDAT               .         SIRGAS2000                    : Geodetic Datum
HZCS               .         SIRGAS_2000_UTM_Zone_24S      : ESRI,PE_10_7_1- <?xml version="1.0" encoding="utf-16"?><ILateBoundCoordinateReferenceSystem name="SIRGAS_2000_UTM_Zone_24S"><AuthorityCode>EPSG,31984</AuthorityCode></ILateBoundCoordinateReferenceSystem>
Horizontal_coordinate_system_authority .         EPSG                          : 
Horizontal_coordinate_system_code .         31984                         : 
LAT                .         -22.087448                    : Latitude
LMF                .         MR                            : Log Measure From
LATI               .dega     -22.08757333                  : Latitude
LONG               .dega     -39.87572194                  : Longitude
MC                 .         39 W                          : Meridiano Central
MDEC               .         0                             : Magnetic Declination
ORIG               .         SIGEO EXPORTACAO PERFIL       : Origem dos dados
ORIGINALWELLNAME   .         1RJS 0342  RJ                 : 
OPER               .         Petrobras                     : 
RWS                .         0                             : Def_Rw
STATE              .         RIO DE JANEIRO                : State
STAT               .         RIO DE JANEIRO                : State
Total_Depth        .         3087                          : 
TD                 .         3087                          : 
UTMZ               .         24                            : UTM Zone
WDMS               .M        953.00                        : Water Depth to Mean Sea Level
WST                .         0                             : Def_Rwt
Water_depth        .M        953                           : 
X                  .         409660.31000000               : 
XCOORD             .         409658.99                     : Surface X
Y                  .         7557220.24000000              : 
YCOORD             .         7557234.00                    : Surface Y
group              .         AB140                         : 
~Parameter Information Block
#_______________________________________________________________________________
#
#PARAMETER_NAME    .UNIT     VALUE                         : DESCRIPTION
#_______________________________________________________________________________
SET                .         BEST_SET                      : 
TLFamily_CALI      .         Caliper                       : 
TLFamily_DENS      .         Bulk Density                  : 
TLFamily_DT        .         Compressional Slowness        : 
TLFamily_Eletrofacies_TGS .         Lithology                     : 
TLFamily_GR        .         Gamma Ray                     : 
TLFamily_HDRA      .         Bulk Density Correction       : 
TLFamily_MD        .         Measured Depth                : 
TLFamily_NEUT      .         Neutron Porosity              : 
TLFamily_PAY_NET_FLAG .         Net Pay Flag                  : 
TLFamily_PERM_WR_MC_MEAN .         Permeability                  : 
TLFamily_PHIE_F    .         Effective Porosity            : 
TLFamily_PHIT_F    .         Total Porosity                : 
TLFamily_RES_D     .         Resistivity - Deep            : 
TLFamily_RES_NET_FLAG .         Net Reservoir Flag            : 
TLFamily_RES_S     .         Resistivity - Spherically Focused: 
TLFamily_RHOV      .         Acoustic Impedance            : 
TLFamily_ROCK_NET_FLAG .         Net Rock Flag                 : 
TLFamily_SWE_SIM   .         Effective Water Saturation    : 
TLFamily_VP        .         Compressional Velocity        : 
TLFamily_VSH_FINAL .         Shale Volume Fraction         : 
~Curve Information
#_______________________________________________________________________________
#
#LOGNAME           .UNIT     LOG_ID                        : DESCRIPTION
#_______________________________________________________________________________
DEPTH              .M                                      : Measured Depth 
CALI               .in                                     : CALIPER 
DENS               .g/cm3                                  : BULK DENSITY 
DT                 .us/ft                                  : DELTA-T (ALSO CALLED SLOWNESS OR INTERVAL TRANSIT TIME) 
Eletrofacies_TGS   .unitless                               : Description 
GR                 .gAPI                                   : GAMMA RAY 
HDRA               .g/cm3                                  : BULK DENSITIY CORRECTION 
NEUT               .frac                                   : THERMAL NEUTRON POROSITY (ORIGINAL RATIO METHOD) IN SELECTED LITHOLOGY 
PAY_NET_FLAG       .unitless                               : unitless 
PERM_WR_MC_MEAN    .mD                                     : Permeability (Wyllie-Rose) 
PHIE_F             .m3/m3                                  :  
PHIT_F             .m3/m3                                  :  
RES_D              .ohm.m                                  : INDUCTION DEEP RESISTIVITY 
RES_NET_FLAG       .unitless                               : unitless 
RES_S              .ohm.m                                  : SFL RESISTIVITY UNAVERAGED 
RHOV               .g.m/cm3.s                              : Impedance from Geophy 
ROCK_NET_FLAG      .unitless                               : unitless 
SWE_SIM            .m3/m3                                  :  
VP                 .m/s                                    : Compressional velocity 
VSH_FINAL          .m3/m3                                  : Final computation of Shale volume fraction 
~Ascii
# ...
2204.5088  -9999      -9999      113.4364   1          71.4137    -9999      -9999      0          -9999      -9999      -9999      1.6618     0          1.5599     -9999      0          -9999      2686.968   -9999     
2204.6612  -9999      -9999      110.3706   1          70.7344    -9999      -9999      0          -9999      -9999      -9999      1.769      0          1.7537     -9999      0          -9999      2761.605   -9999     
2204.8136  -9999      -9999      107.6107   1          69.6753    -9999      -9999      0          -9999      -9999      -9999      1.8466     0          1.9827     -9999      0          -9999      2832.432   -9999     
2204.966   -9999      -9999      105.8932   1          69.1791    -9999      -9999      0          -9999      -9999      -9999      1.8758     0          2.1133     -9999      0          -9999      2878.372   -9999     
2205.1184  -9999      -9999      105.5725   1          70.0431    -9999      -9999      0          -9999      -9999      -9999      1.8648     0          2.1111     -9999      0          -9999      2887.115   -9999     
2205.2708  -9999      -9999      106.599    1          72.0747    -9999      -9999      0          -9999      -9999      -9999      1.8199     0          2.006      -9999      0          -9999      2859.314   -9999     
2205.4232  -9999      -9999      108.8361   1          74.9481    -9999      -9999      0          -9999      -9999      -9999      1.7453     0          1.8235     -9999      0          -9999      2800.542   -9999     
2205.5756  -9999      -9999      111.7352   1          77.5079    -9999      -9999      0          -9999      -9999      -9999      1.6476     0          1.6265     -9999      0          -9999      2727.878   -9999     
2205.728   -9999      -9999      114.7692   1          78.9275    -9999      -9999      0          -9999      -9999      -9999      1.5507     0          1.5028     -9999      0          -9999      2655.765   -9999     
2205.8804  -9999      -9999      117.2072   1          79.6965    -9999      -9999      0          -9999      -9999      -9999      1.4691     0          1.4306     -9999      0          -9999      2600.523   -9999     
2206.0328  -9999      -9999      118.8428   1          80.0927    -9999      -9999      0          -9999      -9999      -9999      1.4064     0          1.3984     -9999      0          -9999      2564.733   -9999     
2206.1852  -9999      -9999      119.5869   1          80.5452    -9999      -9999      0          -9999      -9999      -9999      1.3627     0          1.3897     -9999      0          -9999      2548.774   -9999     
2206.3376  -9999      -9999      119.6655   1          80.5255    -9999      -9999      0          -9999      -9999      -9999      1.3445     0          1.3871     -9999      0          -9999      2547.1     -9999     
2206.49    -9999      -9999      119.4506   1          80.1613    -9999      -9999      0          -9999      -9999      -9999      1.3443     0          1.3905     -9999      0          -9999      2551.682   -9999     
2206.6424  -9999      -9999      119.182    1          79.8613    -9999      -9999      0          -9999      -9999      -9999      1.359      0          1.3959     -9999      0          -9999      2557.433   -9999     
2206.7948  -9999      -9999      119.1755   1          80.2637    -9999      -9999      0          -9999      -9999      -9999      1.3851     0          1.3971     -9999      0          -9999      2557.573   -9999     
2206.9472  -9999      -9999      118.9971   1          79.6404    -9999      -9999      0          -9999      -9999      -9999      1.4177     0          1.3942     -9999      0          -9999      2561.407   -9999     
2207.0996  -9999      -9999      118.6459   1          78.2109    -9999      -9999      0          -9999      -9999      -9999      1.4498     0          1.4012     -9999      0          -9999      2568.989   -9999     
2207.252   -9999      -9999      117.8314   1          76.7343    -9999      -9999      0          -9999      -9999      -9999      1.4839     0          1.4263     -9999      0          -9999      2586.747   -9999     
2207.4044  -9999      -9999      116.273    1          75.9621    -9999      -9999      0          -9999      -9999      -9999      1.5229     0          1.4767     -9999      0          -9999      2621.417   -9999     
2207.5568  -9999      -9999      114.1328   1          75.1466    -9999      -9999      0          -9999      -9999      -9999      1.5655     0          1.5526     -9999      0          -9999      2670.573   -9999     
2207.7092  -9999      -9999      112.2609   1          74.9439    -9999      -9999      0          -9999      -9999      -9999      1.6089     0          1.6229     -9999      0          -9999      2715.104   -9999     
2207.8616  -9999      -9999      110.5534   1          74.9436    -9999      -9999      0          -9999      -9999      -9999      1.6549     0          1.6792     -9999      0          -9999      2757.039   -9999     
2208.014   -9999      -9999      109.0051   1          74.5721    -9999      -9999      0          -9999      -9999      -9999      1.7041     0          1.7176     -9999      0          -9999      2796.199   -9999     
2208.1664  -9999      -9999      108.1984   1          71.0866    -9999      -9999      0          -9999      -9999      -9999      1.7499     0          1.7537     -9999      0          -9999      2817.047   -9999     
2208.3188  -9999      -9999      107.2319   1          67.8001    -9999      -9999      0          -9999      -9999      -9999      1.7906     0          1.8046     -9999      0          -9999      2842.438   -9999     
2208.4712  -9999      -9999      106.2019   1          66.3417    -9999      -9999      0          -9999      -9999      -9999      1.8209     0          1.863      -9999      0          -9999      2870.005   -9999     
2208.6236  -9999      -9999      105.2773   1          67.032     -9999      -9999      0          -9999      -9999      -9999      1.8368     0          1.9184     -9999      0          -9999      2895.211   -9999     
2208.776   -9999      -9999      105.0483   1          68.3626    -9999      -9999      0          -9999      -9999      -9999      1.8291     0          1.9353     -9999      0          -9999      2901.522   -9999     
2208.9284  -9999      -9999      105.5777   1          69.9058    -9999      -9999      0          -9999      -9999      -9999      1.8069     0          1.9018     -9999      0          -9999      2886.973   -9999     
2209.0808  -9999      -9999      106.836    1          72.0463    -9999      -9999      0          -9999      -9999      -9999      1.7723     0          1.8352     -9999      0          -9999      2852.971   -9999     
2209.2332  19.8838    1.9871     108.8745   1          49.7502    0.0885     0.534256   0          -9999      0.1018126  0.3830625  1.7234     0          1.7397     5562.993   0          1          2799.554   1         
2209.3856  20.0324    1.9065     111.848    1          49.8604    0.0766     0.583132   0          -9999      0.1521876  0.4334375  1.6537     0          1.6154     5195.455   0          1          2725.127   1         
2209.538   20.2563    1.825      114.7947   1          49.0973    0.0518     0.5909     0          -9999      0.268446   0.4843749  1.5713     0          1.4994     4845.694   0          0.5475384  2655.175   0.7677477 
2209.6904  20.6888    1.7583     117.2452   1          48.1522    0.0282     0.570021   0          -9999      0.4369574  0.5260625  1.4879     1          1.4174     4571.017   1          0.5161061  2599.68    0.316818  
2209.8428  21.2737    1.7184     118.992    1          47.3093    0.0137     0.53597    0          -9999      0.551      0.551      1.4115     0          1.3734     4401.71    1          0.4830677  2561.517   0         
2209.9952  21.8928    1.7211     119.8016   1          46.8901    0.0175     0.511354   0          -9999      0.5493125  0.5493125  1.3525     0          1.3685     4378.834   1          0.4950077  2544.206   0         
